{
  "type": "FeatureCollection",
  "metadata": {
    "built_at": "2025-07-06T08:35:12Z",
    "description": "Combined and minified boroughs",
    "url_prefix": "https://tfl.gov.uk/cdn/static/cms/documents/bus-route-maps/"
  },
  "features": [
    {
      "type": "Feature",
      "geometry": {
        "type": "Point",
        "coordinates": [
          0.08050296875486941,
          51.538022499849994
        ]
      },
      "properties": {
        "name": "Barking Town Centre",
        "url": "https://tfl.gov.uk/cdn/static/cms/documents/bus-route-maps/barking-town-centre-a4.pdf",
        "borough": "Barking & Dagenham"
      }
    },
    {
      "type": "Feature",
      "geometry": {
        "type": "Point",
        "coordinates": [
          0.1446731768546336,
          51.52755277779587
        ]
      },
      "properties": {
        "name": "Dagenham Dock and Goresbrook",
        "url": "https://tfl.gov.uk/cdn/static/cms/documents/bus-route-maps/dagenham-dock-and-goresbrook-a4-0523.pdf",
        "borough": "Barking & Dagenham"
      }
    },
    {
      "type": "Feature",
      "geometry": {
        "type": "Point",
        "coordinates": [
          0.14764240114732888,
          51.54148909417336
        ]
      },
      "properties": {
        "name": "Dagenham Heathway",
        "url": "https://tfl.gov.uk/cdn/static/cms/documents/bus-route-maps/dagenham-heathway-a4-0523.pdf",
        "borough": "Barking & Dagenham"
      }
    },
    {
      "type": "Feature",
      "geometry": {
        "type": "Point",
        "coordinates": [
          0.17187974412272256,
          51.52498340964753
        ]
      },
      "properties": {
        "name": "Rainham (Orchard Village)",
        "url": "https://tfl.gov.uk/cdn/static/cms/documents/bus-route-maps/rainham-orchard-village-a4.pdf",
        "borough": "Barking & Dagenham"
      }
    },
    {
      "type": "Feature",
      "geometry": {
        "type": "Point",
        "coordinates": [
          0.14124312854524912,
          51.581040687516385
        ]
      },
      "properties": {
        "name": "Rose Lane Estate (Moby Dick)",
        "url": "https://tfl.gov.uk/cdn/static/cms/documents/bus-route-maps/rose-lane-estate-moby-dick-a4.pdf",
        "borough": "Barking & Dagenham"
      }
    },
    {
      "type": "Feature",
      "geometry": {
        "type": "Point",
        "coordinates": [
          0.17620532445248369,
          51.56553155675725
        ]
      },
      "properties": {
        "name": "Rush Green (Romford)",
        "url": "https://tfl.gov.uk/cdn/static/cms/documents/bus-route-maps/rush-green-romford-a4.pdf",
        "borough": "Barking & Dagenham"
      }
    },
    {
      "type": "Feature",
      "geometry": {
        "type": "Point",
        "coordinates": [
          0.10176005990445104,
          51.538423484042994
        ]
      },
      "properties": {
        "name": "Upney",
        "url": "https://tfl.gov.uk/cdn/static/cms/documents/bus-route-maps/upney-a4.pdf",
        "borough": "Barking & Dagenham"
      }
    },
    {
      "type": "Feature",
      "geometry": {
        "type": "Point",
        "coordinates": [
          0.14204106309406667,
          51.57220893949408
        ]
      },
      "properties": {
        "name": "Whalebone Lane (Tollgate)",
        "url": "https://tfl.gov.uk/cdn/static/cms/documents/bus-route-maps/whalebone-lane-tollgate-a4.pdf",
        "borough": "Barking & Dagenham"
      }
    },
    {
      "type": "Feature",
      "geometry": {
        "type": "Point",
        "coordinates": [
          -0.1412810348381915,
          51.616830964402325
        ]
      },
      "properties": {
        "name": "Arnos Grove and New Southgate",
        "url": "https://tfl.gov.uk/cdn/static/cms/documents/bus-route-maps/arnos-grove-and-new-southgate-a4-091223.pdf",
        "borough": "Barnet"
      }
    },
    {
      "type": "Feature",
      "geometry": {
        "type": "Point",
        "coordinates": [
          -0.20089239468442396,
          51.65316289605789
        ]
      },
      "properties": {
        "name": "Barnet High Street",
        "url": "https://tfl.gov.uk/cdn/static/cms/documents/bus-route-maps/barnet-high-street-a4-040223.pdf",
        "borough": "Barnet"
      }
    },
    {
      "type": "Feature",
      "geometry": {
        "type": "Point",
        "coordinates": [
          -0.21275471729580736,
          51.65274041536254
        ]
      },
      "properties": {
        "name": "Barnet Hospital",
        "url": "https://tfl.gov.uk/cdn/static/cms/documents/bus-route-maps/barnet-hospital-a4-040223.pdf",
        "borough": "Barnet"
      }
    },
    {
      "type": "Feature",
      "geometry": {
        "type": "Point",
        "coordinates": [
          -0.2183801,
          51.5767595
        ]
      },
      "properties": {
        "name": "Brent Cross",
        "url": "https://tfl.gov.uk/cdn/static/cms/documents/bus-route-maps/brent-cross-a4-170224.pdf",
        "borough": "Barnet"
      }
    },
    {
      "type": "Feature",
      "geometry": {
        "type": "Point",
        "coordinates": [
          -0.2748497351066043,
          51.60697563169975
        ]
      },
      "properties": {
        "name": "Edgware Community Hospital",
        "url": "https://tfl.gov.uk/cdn/static/cms/documents/bus-route-maps/edgware-community-hospital-a4-290423.pdf",
        "borough": "Barnet"
      }
    },
    {
      "type": "Feature",
      "geometry": {
        "type": "Point",
        "coordinates": [
          -0.2459688289550757,
          51.600879906902954
        ]
      },
      "properties": {
        "name": "Grahame Park and RAF Museum, Hendon",
        "url": "https://tfl.gov.uk/cdn/static/cms/documents/bus-route-maps/grahame-park-and-raf-museum-hendon-a4-010723.pdf",
        "borough": "Barnet"
      }
    },
    {
      "type": "Feature",
      "geometry": {
        "type": "Point",
        "coordinates": [
          -0.20783678291677266,
          51.606172605339765
        ]
      },
      "properties": {
        "name": "Mill Hill East",
        "url": "https://tfl.gov.uk/cdn/static/cms/documents/bus-route-maps/mill-hill-east-a4.pdf",
        "borough": "Barnet"
      }
    },
    {
      "type": "Feature",
      "geometry": {
        "type": "Point",
        "coordinates": [
          -0.17664824255991995,
          51.61308417648191
        ]
      },
      "properties": {
        "name": "North Finchley",
        "url": "https://tfl.gov.uk/cdn/static/cms/documents/bus-route-maps/north-finchley-a4.pdf",
        "borough": "Barnet"
      }
    },
    {
      "type": "Feature",
      "geometry": {
        "type": "Point",
        "coordinates": [
          0.12194787401682561,
          51.491105632144674
        ]
      },
      "properties": {
        "name": "Abbey Wood",
        "url": "https://tfl.gov.uk/cdn/static/cms/documents/bus-route-maps/abbey-wood-a4-240224.pdf",
        "borough": "Bexley"
      }
    },
    {
      "type": "Feature",
      "geometry": {
        "type": "Point",
        "coordinates": [
          0.15827657622521252,
          51.467906197570905
        ]
      },
      "properties": {
        "name": "Barnehurst",
        "url": "https://tfl.gov.uk/cdn/static/cms/documents/bus-route-maps/barnehurst-a4.pdf",
        "borough": "Bexley"
      }
    },
    {
      "type": "Feature",
      "geometry": {
        "type": "Point",
        "coordinates": [
          0.150488,
          51.4416793
        ]
      },
      "properties": {
        "name": "Bexley",
        "url": "https://tfl.gov.uk/cdn/static/cms/documents/bus-route-maps/bexley-a4.pdf",
        "borough": "Bexley"
      }
    },
    {
      "type": "Feature",
      "geometry": {
        "type": "Point",
        "coordinates": [
          0.15351024241419026,
          51.4511550054911
        ]
      },
      "properties": {
        "name": "Bexley (Gravel Hill)",
        "url": "https://tfl.gov.uk/cdn/static/cms/documents/bus-route-maps/bexley-gravel-hill-a4.pdf",
        "borough": "Bexley"
      }
    },
    {
      "type": "Feature",
      "geometry": {
        "type": "Point",
        "coordinates": [
          0.13792189553704454,
          51.45758054762742
        ]
      },
      "properties": {
        "name": "Bexleyheath",
        "url": "https://tfl.gov.uk/cdn/static/cms/documents/bus-route-maps/bexleyheath-a4.pdf",
        "borough": "Bexley"
      }
    },
    {
      "type": "Feature",
      "geometry": {
        "type": "Point",
        "coordinates": [
          0.10309949589541718,
          51.450576131020874
        ]
      },
      "properties": {
        "name": "Blackfen",
        "url": "https://tfl.gov.uk/cdn/static/cms/documents/bus-route-maps/blackfen-a4.pdf",
        "borough": "Bexley"
      }
    },
    {
      "type": "Feature",
      "geometry": {
        "type": "Point",
        "coordinates": [
          0.17853460017574505,
          51.45163345423529
        ]
      },
      "properties": {
        "name": "Crayford",
        "url": "https://tfl.gov.uk/cdn/static/cms/documents/bus-route-maps/crayford-a4.pdf",
        "borough": "Bexley"
      }
    },
    {
      "type": "Feature",
      "geometry": {
        "type": "Point",
        "coordinates": [
          0.1773184677446846,
          51.4805244852087
        ]
      },
      "properties": {
        "name": "Erith",
        "url": "https://tfl.gov.uk/cdn/static/cms/documents/bus-route-maps/erith-a4-140522.pdf",
        "borough": "Bexley"
      }
    },
    {
      "type": "Feature",
      "geometry": {
        "type": "Point",
        "coordinates": [
          0.07864222004802307,
          51.45917292991361
        ]
      },
      "properties": {
        "name": "Falconwood",
        "url": "https://tfl.gov.uk/cdn/static/cms/documents/bus-route-maps/falconwood-a4.pdf",
        "borough": "Bexley"
      }
    },
    {
      "type": "Feature",
      "geometry": {
        "type": "Point",
        "coordinates": [
          0.11806983614907211,
          51.41865556206816
        ]
      },
      "properties": {
        "name": "Foots Cray and Ruxley Corner",
        "url": "https://tfl.gov.uk/cdn/static/cms/documents/bus-route-maps/foots-cray-and-ruxley-corner-a4.pdf",
        "borough": "Bexley"
      }
    },
    {
      "type": "Feature",
      "geometry": {
        "type": "Point",
        "coordinates": [
          0.16295791382933683,
          51.47522652960923
        ]
      },
      "properties": {
        "name": "Northumberland Heath",
        "url": "https://tfl.gov.uk/cdn/static/cms/documents/bus-route-maps/northumberland-heath-a4.pdf",
        "borough": "Bexley"
      }
    },
    {
      "type": "Feature",
      "geometry": {
        "type": "Point",
        "coordinates": [
          0.09849016610091144,
          51.41922510821287
        ]
      },
      "properties": {
        "name": "Queen Mary's Hospital",
        "url": "https://tfl.gov.uk/cdn/static/cms/documents/bus-route-maps/queen-marys-hospital-a4.pdf",
        "borough": "Bexley"
      }
    },
    {
      "type": "Feature",
      "geometry": {
        "type": "Point",
        "coordinates": [
          0.10259824443641066,
          51.43226210499173
        ]
      },
      "properties": {
        "name": "Sidcup",
        "url": "https://tfl.gov.uk/cdn/static/cms/documents/bus-route-maps/sidcup-a4.pdf",
        "borough": "Bexley"
      }
    },
    {
      "type": "Feature",
      "geometry": {
        "type": "Point",
        "coordinates": [
          0.19040362952550627,
          51.46870573456711
        ]
      },
      "properties": {
        "name": "Slade Green",
        "url": "https://tfl.gov.uk/cdn/static/cms/documents/bus-route-maps/slade-green-a4.pdf",
        "borough": "Bexley"
      }
    },
    {
      "type": "Feature",
      "geometry": {
        "type": "Point",
        "coordinates": [
          0.09992544452427078,
          51.46370374941252
        ]
      },
      "properties": {
        "name": "Welling",
        "url": "https://tfl.gov.uk/cdn/static/cms/documents/bus-route-maps/welling-a4.pdf",
        "borough": "Bexley"
      }
    },
    {
      "type": "Feature",
      "geometry": {
        "type": "Point",
        "coordinates": [
          -0.3005953202548083,
          51.53968280750814
        ]
      },
      "properties": {
        "name": "Alperton",
        "url": "https://tfl.gov.uk/cdn/static/cms/documents/bus-route-maps/alperton-a4-260823.pdf",
        "borough": "Brent"
      }
    },
    {
      "type": "Feature",
      "geometry": {
        "type": "Point",
        "coordinates": [
          -0.2183801,
          51.5767595
        ]
      },
      "properties": {
        "name": "Brent Cross",
        "url": "https://tfl.gov.uk/cdn/static/cms/documents/bus-route-maps/brent-cross-a4-170224.pdf",
        "borough": "Brent"
      }
    },
    {
      "type": "Feature",
      "geometry": {
        "type": "Point",
        "coordinates": [
          -0.26549194832125717,
          51.56572260318326
        ]
      },
      "properties": {
        "name": "Brent Town Hall and Blackbird Cross",
        "url": "https://tfl.gov.uk/cdn/static/cms/documents/bus-route-maps/brent-town-hall-and-blackbird-cross-a4-260823.pdf",
        "borough": "Brent"
      }
    },
    {
      "type": "Feature",
      "geometry": {
        "type": "Point",
        "coordinates": [
          -0.21184206642258885,
          51.54229563556646
        ]
      },
      "properties": {
        "name": "Brondesbury Park",
        "url": "https://tfl.gov.uk/cdn/static/cms/documents/bus-route-maps/brondesbury-park-a4.pdf",
        "borough": "Brent"
      }
    },
    {
      "type": "Feature",
      "geometry": {
        "type": "Point",
        "coordinates": [
          -0.23366530535477315,
          51.532439030173556
        ]
      },
      "properties": {
        "name": "College Park and Scrubs Lane",
        "url": "https://tfl.gov.uk/cdn/static/cms/documents/bus-route-maps/college-park-and-scrubs-lane-a4.pdf",
        "borough": "Brent"
      }
    },
    {
      "type": "Feature",
      "geometry": {
        "type": "Point",
        "coordinates": [
          -0.3231713953014249,
          51.579428773861
        ]
      },
      "properties": {
        "name": "Northwick Park and Kenton station",
        "url": "https://tfl.gov.uk/cdn/static/cms/documents/bus-route-maps/northwick-park-and-kenton-a4.pdf",
        "borough": "Brent"
      }
    },
    {
      "type": "Feature",
      "geometry": {
        "type": "Point",
        "coordinates": [
          -0.26849632701806714,
          51.53037346089888
        ]
      },
      "properties": {
        "name": "Park Royal (Central Middlesex Hospital)",
        "url": "https://tfl.gov.uk/cdn/static/cms/documents/bus-route-maps/park-royal-central-middlesex-hospital-a4-0622.pdf",
        "borough": "Brent"
      }
    },
    {
      "type": "Feature",
      "geometry": {
        "type": "Point",
        "coordinates": [
          -0.3136576,
          51.5527579
        ]
      },
      "properties": {
        "name": "Sudbury",
        "url": "https://tfl.gov.uk/cdn/static/cms/documents/bus-route-maps/sudbury-a4.pdf",
        "borough": "Brent"
      }
    },
    {
      "type": "Feature",
      "geometry": {
        "type": "Point",
        "coordinates": [
          -0.3075740944264546,
          51.550061816339124
        ]
      },
      "properties": {
        "name": "Wembley Hospital",
        "url": "https://tfl.gov.uk/cdn/static/cms/documents/bus-route-maps/wembley-hospital-a4-0622.pdf",
        "borough": "Brent"
      }
    },
    {
      "type": "Feature",
      "geometry": {
        "type": "Point",
        "coordinates": [
          -0.2861051430902793,
          51.556027609318654
        ]
      },
      "properties": {
        "name": "Wembley Stadium",
        "url": "https://tfl.gov.uk/cdn/static/cms/documents/bus-route-maps/wembley-stadium-a4-251123.pdf",
        "borough": "Brent"
      }
    },
    {
      "type": "Feature",
      "geometry": {
        "type": "Point",
        "coordinates": [
          -0.2356033417261986,
          51.543844421466254
        ]
      },
      "properties": {
        "name": "Willesden Centre for Health and Care",
        "url": "https://tfl.gov.uk/cdn/static/cms/documents/bus-route-maps/willesden-centre-for-health-and-care-a4-290423.pdf",
        "borough": "Brent"
      }
    },
    {
      "type": "Feature",
      "geometry": {
        "type": "Point",
        "coordinates": [
          -0.06800687734953913,
          51.412808189501725
        ]
      },
      "properties": {
        "name": "Anerley station",
        "url": "https://tfl.gov.uk/cdn/static/cms/documents/bus-route-maps/anerley-station-a4-150717.pdf",
        "borough": "Bromley"
      }
    },
    {
      "type": "Feature",
      "geometry": {
        "type": "Point",
        "coordinates": [
          -0.014358672398076455,
          51.41876643328293
        ]
      },
      "properties": {
        "name": "Beckenham East",
        "url": "https://tfl.gov.uk/cdn/static/cms/documents/bus-route-maps/beckenham-east-a4.pdf",
        "borough": "Bromley"
      }
    },
    {
      "type": "Feature",
      "geometry": {
        "type": "Point",
        "coordinates": [
          0.03432609589811311,
          51.310716366116544
        ]
      },
      "properties": {
        "name": "Biggin Hill",
        "url": "https://tfl.gov.uk/cdn/static/cms/documents/bus-route-maps/biggin-hill-a4.pdf",
        "borough": "Bromley"
      }
    },
    {
      "type": "Feature",
      "geometry": {
        "type": "Point",
        "coordinates": [
          0.02283109467646761,
          51.32766154327361
        ]
      },
      "properties": {
        "name": "Biggin Hill Airport",
        "url": "https://tfl.gov.uk/cdn/static/cms/documents/bus-route-maps/biggin-hill-airport-a4.pdf",
        "borough": "Bromley"
      }
    },
    {
      "type": "Feature",
      "geometry": {
        "type": "Point",
        "coordinates": [
          0.015558562537067257,
          51.38826070756482
        ]
      },
      "properties": {
        "name": "Bromley (Hayesford Park)",
        "url": "https://tfl.gov.uk/cdn/static/cms/documents/bus-route-maps/bromley-hayesford-park-a4.pdf",
        "borough": "Bromley"
      }
    },
    {
      "type": "Feature",
      "geometry": {
        "type": "Point",
        "coordinates": [
          0.013951379856514878,
          51.40774400119547
        ]
      },
      "properties": {
        "name": "Bromley North and Market Square",
        "url": "https://tfl.gov.uk/cdn/static/cms/documents/bus-route-maps/bromley-north-and-market-square-a4-240224.pdf",
        "borough": "Bromley"
      }
    },
    {
      "type": "Feature",
      "geometry": {
        "type": "Point",
        "coordinates": [
          0.07418747795049892,
          51.412464447726435
        ]
      },
      "properties": {
        "name": "Chislehurst War Memorial",
        "url": "https://tfl.gov.uk/cdn/static/cms/documents/bus-route-maps/chislehurst-war-memorial-a4.pdf",
        "borough": "Bromley"
      }
    },
    {
      "type": "Feature",
      "geometry": {
        "type": "Point",
        "coordinates": [
          -0.0013956114346471574,
          51.37112216126725
        ]
      },
      "properties": {
        "name": "Coney Hall",
        "url": "https://tfl.gov.uk/cdn/static/cms/documents/bus-route-maps/coney-hall-a4.pdf",
        "borough": "Bromley"
      }
    },
    {
      "type": "Feature",
      "geometry": {
        "type": "Point",
        "coordinates": [
          0.07615621025710255,
          51.373320483676224
        ]
      },
      "properties": {
        "name": "Crofton (Orpington)",
        "url": "https://tfl.gov.uk/cdn/static/cms/documents/bus-route-maps/crofton-orpington-a4.pdf",
        "borough": "Bromley"
      }
    },
    {
      "type": "Feature",
      "geometry": {
        "type": "Point",
        "coordinates": [
          -0.07851184420500766,
          51.419960790878825
        ]
      },
      "properties": {
        "name": "Crystal Palace",
        "url": "https://tfl.gov.uk/cdn/static/cms/documents/bus-route-maps/crystal-palace-a4-290423.pdf",
        "borough": "Bromley"
      }
    },
    {
      "type": "Feature",
      "geometry": {
        "type": "Point",
        "coordinates": [
          -0.027191687682650713,
          51.39027990936104
        ]
      },
      "properties": {
        "name": "Eden Park",
        "url": "https://tfl.gov.uk/cdn/static/cms/documents/bus-route-maps/eden-park-a4-030224.pdf",
        "borough": "Bromley"
      }
    },
    {
      "type": "Feature",
      "geometry": {
        "type": "Point",
        "coordinates": [
          -0.044068668694096313,
          51.398416219791365
        ]
      },
      "properties": {
        "name": "Elmers End",
        "url": "https://tfl.gov.uk/cdn/static/cms/documents/bus-route-maps/elmers-end-a4.pdf",
        "borough": "Bromley"
      }
    },
    {
      "type": "Feature",
      "geometry": {
        "type": "Point",
        "coordinates": [
          -0.027764144575557873,
          51.41578932583777
        ]
      },
      "properties": {
        "name": "New Beckenham",
        "url": "https://tfl.gov.uk/cdn/static/cms/documents/bus-route-maps/new-beckenham-a4.pdf",
        "borough": "Bromley"
      }
    },
    {
      "type": "Feature",
      "geometry": {
        "type": "Point",
        "coordinates": [
          0.09756889487080073,
          51.37319645231587
        ]
      },
      "properties": {
        "name": "Orpington",
        "url": "https://tfl.gov.uk/cdn/static/cms/documents/bus-route-maps/orpington-a4.pdf",
        "borough": "Bromley"
      }
    },
    {
      "type": "Feature",
      "geometry": {
        "type": "Point",
        "coordinates": [
          0.10625498129267974,
          51.38176487075168
        ]
      },
      "properties": {
        "name": "Orpington High Street",
        "url": "https://tfl.gov.uk/cdn/static/cms/documents/bus-route-maps/orpington-high-st-a4-010417.pdf",
        "borough": "Bromley"
      }
    },
    {
      "type": "Feature",
      "geometry": {
        "type": "Point",
        "coordinates": [
          0.09251699925905647,
          51.36397773625689
        ]
      },
      "properties": {
        "name": "Orpington Hospital",
        "url": "https://tfl.gov.uk/cdn/static/cms/documents/bus-route-maps/orpington-hospital-a4-010417.pdf",
        "borough": "Bromley"
      }
    },
    {
      "type": "Feature",
      "geometry": {
        "type": "Point",
        "coordinates": [
          -0.018111601372264776,
          51.3991444389705
        ]
      },
      "properties": {
        "name": "Park Langley",
        "url": "https://tfl.gov.uk/cdn/static/cms/documents/bus-route-maps/park-langley-a4-030224.pdf",
        "borough": "Bromley"
      }
    },
    {
      "type": "Feature",
      "geometry": {
        "type": "Point",
        "coordinates": [
          0.053188089713630225,
          51.366153533584495
        ]
      },
      "properties": {
        "name": "Princess Royal University Hospital",
        "url": "https://tfl.gov.uk/cdn/static/cms/documents/bus-route-maps/princess-royal-university-hospital-a4.pdf",
        "borough": "Bromley"
      }
    },
    {
      "type": "Feature",
      "geometry": {
        "type": "Point",
        "coordinates": [
          0.11604494169385934,
          51.376018876323
        ]
      },
      "properties": {
        "name": "Ramsden Estate",
        "url": "https://tfl.gov.uk/cdn/static/cms/documents/bus-route-maps/ramsden-estate.pdf",
        "borough": "Bromley"
      }
    },
    {
      "type": "Feature",
      "geometry": {
        "type": "Point",
        "coordinates": [
          -0.00022225309614527994,
          51.40652530110911
        ]
      },
      "properties": {
        "name": "Shortlands",
        "url": "https://tfl.gov.uk/cdn/static/cms/documents/bus-route-maps/shortlands-0816.pdf",
        "borough": "Bromley"
      }
    },
    {
      "type": "Feature",
      "geometry": {
        "type": "Point",
        "coordinates": [
          -0.024198874960940316,
          51.37764878983332
        ]
      },
      "properties": {
        "name": "West Wickham",
        "url": "https://tfl.gov.uk/cdn/static/cms/documents/bus-route-maps/west-wickham-a4-030224.pdf",
        "borough": "Bromley"
      }
    },
    {
      "type": "Feature",
      "geometry": {
        "type": "Point",
        "coordinates": [
          -0.14274204974970156,
          51.53969194799053
        ]
      },
      "properties": {
        "name": "Camden Town",
        "url": "https://tfl.gov.uk/cdn/static/cms/documents/bus-route-maps/camden-town-a4-300923.pdf",
        "borough": "Camden",
        "url_night": "https://tfl.gov.uk/cdn/static/cms/documents/bus-route-maps/camden-town-night-a4-100721.pdf"
      }
    },
    {
      "type": "Feature",
      "geometry": {
        "type": "Point",
        "coordinates": [
          -0.15258334693953907,
          51.54385267696535
        ]
      },
      "properties": {
        "name": "Chalk Farm",
        "url": "https://tfl.gov.uk/cdn/static/cms/documents/bus-route-maps/chalk-farm-a4-300923.pdf",
        "borough": "Camden"
      }
    },
    {
      "type": "Feature",
      "geometry": {
        "type": "Point",
        "coordinates": [
          -0.11138618361785291,
          51.52344442996503
        ]
      },
      "properties": {
        "name": "Clerkenwell",
        "url": "https://tfl.gov.uk/cdn/static/cms/documents/bus-route-maps/clerkenwell-a4-170421.pdf",
        "borough": "Camden",
        "url_night": "https://tfl.gov.uk/cdn/static/cms/documents/bus-route-maps/clerkenwell-night-a4-170421.pdf "
      }
    },
    {
      "type": "Feature",
      "geometry": {
        "type": "Point",
        "coordinates": [
          -0.11757475695182806,
          51.52601263396908
        ]
      },
      "properties": {
        "name": "Eastman Dental Hospital (Clerkenwell)",
        "url": "https://tfl.gov.uk/cdn/static/cms/documents/bus-route-maps/eastman-dental-hospital-a4-300121.pdf",
        "borough": "Camden"
      }
    },
    {
      "type": "Feature",
      "geometry": {
        "type": "Point",
        "coordinates": [
          -0.13204192682699983,
          51.52748056333413
        ]
      },
      "properties": {
        "name": "Euston",
        "url": "https://tfl.gov.uk/cdn/static/cms/documents/bus-route-maps/euston-a4-300923.pdf",
        "borough": "Camden",
        "url_night": "https://tfl.gov.uk/cdn/static/cms/documents/bus-route-maps/euston-night-a4-290423.pdf "
      }
    },
    {
      "type": "Feature",
      "geometry": {
        "type": "Point",
        "coordinates": [
          -0.13815069665400254,
          51.5250897183873
        ]
      },
      "properties": {
        "name": "Euston Square and Warren Street",
        "url": "https://tfl.gov.uk/cdn/static/cms/documents/bus-route-maps/euston-square-and-warren-street-a4-100721.pdf",
        "borough": "Camden",
        "url_night": "https://tfl.gov.uk/cdn/static/cms/documents/bus-route-maps/euston-square-and-warren-street-night-a4-100721.pdf "
      }
    },
    {
      "type": "Feature",
      "geometry": {
        "type": "Point",
        "coordinates": [
          -0.10627340301611135,
          51.52114226996065
        ]
      },
      "properties": {
        "name": "Farringdon",
        "url": "https://tfl.gov.uk/cdn/static/cms/documents/bus-route-maps/farringdon-a4-010522.pdf",
        "borough": "Camden"
      }
    },
    {
      "type": "Feature",
      "geometry": {
        "type": "Point",
        "coordinates": [
          -0.18105510276996495,
          51.548535795659916
        ]
      },
      "properties": {
        "name": "Finchley Road",
        "url": "https://tfl.gov.uk/cdn/static/cms/documents/bus-route-maps/finchley-road-a4-280821.pdf",
        "borough": "Camden"
      }
    },
    {
      "type": "Feature",
      "geometry": {
        "type": "Point",
        "coordinates": [
          -0.1948260885924204,
          51.5533201384415
        ]
      },
      "properties": {
        "name": "Fortune Green",
        "url": "https://tfl.gov.uk/cdn/static/cms/documents/bus-route-maps/fortune-green-a4-010417.pdf",
        "borough": "Camden"
      }
    },
    {
      "type": "Feature",
      "geometry": {
        "type": "Point",
        "coordinates": [
          -0.1343573,
          51.5205978
        ]
      },
      "properties": {
        "name": "Goodge Street",
        "url": "https://tfl.gov.uk/cdn/static/cms/documents/bus-route-maps/goodge-street-a4-0622.pdf",
        "borough": "Camden",
        "url_night": "https://tfl.gov.uk/cdn/static/cms/documents/bus-route-maps/goodge-street-night-a4-0622.pdf "
      }
    },
    {
      "type": "Feature",
      "geometry": {
        "type": "Point",
        "coordinates": [
          -0.16499148410704956,
          51.55417581656208
        ]
      },
      "properties": {
        "name": "Hampstead Heath and Royal Free Hospital",
        "url": "https://tfl.gov.uk/cdn/static/cms/documents/bus-route-maps/hampstead-heath-and-royal-free-hospital-a4-300923.pdf",
        "borough": "Camden"
      }
    },
    {
      "type": "Feature",
      "geometry": {
        "type": "Point",
        "coordinates": [
          -0.12039791729180847,
          51.517621496687184
        ]
      },
      "properties": {
        "name": "Holborn",
        "url": "https://tfl.gov.uk/cdn/static/cms/documents/bus-route-maps/holborn-a4.pdf",
        "borough": "Camden"
      }
    },
    {
      "type": "Feature",
      "geometry": {
        "type": "Point",
        "coordinates": [
          -0.12010293804527133,
          51.523251713284495
        ]
      },
      "properties": {
        "name": "Holborn  - Night Buses",
        "url_night": "https://tfl.gov.uk/cdn/static/cms/documents/bus-route-maps/holborn-night-a4-300923.pdf",
        "borough": "Camden"
      }
    },
    {
      "type": "Feature",
      "geometry": {
        "type": "Point",
        "coordinates": [
          -0.12240572937341881,
          51.53075711236763
        ]
      },
      "properties": {
        "name": "King's Cross",
        "url": "https://tfl.gov.uk/cdn/static/cms/documents/bus-route-maps/kings-cross-a4-300121.pdf",
        "borough": "Camden",
        "url_night": "https://tfl.gov.uk/cdn/static/cms/documents/bus-route-maps/kings-cross-night-a4-0622.pdf "
      }
    },
    {
      "type": "Feature",
      "geometry": {
        "type": "Point",
        "coordinates": [
          -0.1610689296919855,
          51.53927043939339
        ]
      },
      "properties": {
        "name": "London Zoo and Primrose Hill",
        "url": "https://tfl.gov.uk/cdn/static/cms/documents/bus-route-maps/london-zoo-and-primrose-hill-a4-0518.pdf",
        "borough": "Camden"
      }
    },
    {
      "type": "Feature",
      "geometry": {
        "type": "Point",
        "coordinates": [
          -0.12608085495177804,
          51.52168288596798
        ]
      },
      "properties": {
        "name": "Russell Square",
        "url": "https://tfl.gov.uk/cdn/static/cms/documents/bus-route-maps/russell-square-a4-300923.pdf",
        "borough": "Camden"
      }
    },
    {
      "type": "Feature",
      "geometry": {
        "type": "Point",
        "coordinates": [
          -0.13037450631131048,
          51.51642113749767
        ]
      },
      "properties": {
        "name": "Tottenham Court Road",
        "url": "https://tfl.gov.uk/cdn/static/cms/documents/bus-route-maps/tottenham-court-road-a4-300923.pdf",
        "borough": "Camden",
        "url_night": "https://tfl.gov.uk/cdn/static/cms/documents/bus-route-maps/tottenham-court-road-night-a4-300923.pdf "
      }
    },
    {
      "type": "Feature",
      "geometry": {
        "type": "Point",
        "coordinates": [
          -0.07582211261552727,
          51.51425522792501
        ]
      },
      "properties": {
        "name": "Aldgate and Fenchurch Street",
        "url": "https://tfl.gov.uk/cdn/static/cms/documents/bus-route-maps/aldgate-and-fenchurch-street-a4.pdf",
        "borough": "City of London",
        "url_night": "https://tfl.gov.uk/cdn/static/cms/documents/bus-route-maps/aldgate-and-fenchurch-street-night-a4-310723.pdf"
      }
    },
    {
      "type": "Feature",
      "geometry": {
        "type": "Point",
        "coordinates": [
          -0.06712635671780129,
          51.51490010141977
        ]
      },
      "properties": {
        "name": "Aldgate East",
        "url": "https://tfl.gov.uk/cdn/static/cms/documents/bus-route-maps/aldgate-east-a4-0622.pdf",
        "borough": "City of London",
        "url_night": "https://tfl.gov.uk/cdn/static/cms/documents/bus-route-maps/aldgate-east-night-a4-0622.pdf "
      }
    },
    {
      "type": "Feature",
      "geometry": {
        "type": "Point",
        "coordinates": [
          -0.08894901520235629,
          51.51340275331103
        ]
      },
      "properties": {
        "name": "Bank",
        "url": "https://tfl.gov.uk/cdn/static/cms/documents/bus-route-maps/bank-a4.pdf",
        "borough": "City of London"
      }
    },
    {
      "type": "Feature",
      "geometry": {
        "type": "Point",
        "coordinates": [
          -0.09735612840753381,
          51.52006886137993
        ]
      },
      "properties": {
        "name": "Barbican",
        "url": "https://tfl.gov.uk/cdn/static/cms/documents/bus-route-maps/barbican-a4-010522.pdf",
        "borough": "City of London"
      }
    },
    {
      "type": "Feature",
      "geometry": {
        "type": "Point",
        "coordinates": [
          -0.10415198429504909,
          51.51185459703611
        ]
      },
      "properties": {
        "name": "Blackfriars",
        "url": "https://tfl.gov.uk/cdn/static/cms/documents/bus-route-maps/blackfriars-a4.pdf",
        "borough": "City of London"
      }
    },
    {
      "type": "Feature",
      "geometry": {
        "type": "Point",
        "coordinates": [
          -0.08777785329601445,
          51.51208398960942
        ]
      },
      "properties": {
        "name": "City of London - Night Buses",
        "url_night": "https://tfl.gov.uk/cdn/static/cms/documents/bus-route-maps/city-of-london-night-a4.pdf",
        "borough": "City of London"
      }
    },
    {
      "type": "Feature",
      "geometry": {
        "type": "Point",
        "coordinates": [
          -0.10358408177745428,
          51.51534014473311
        ]
      },
      "properties": {
        "name": "City Thameslink (and Barts Hospital)",
        "url": "https://tfl.gov.uk/cdn/static/cms/documents/bus-route-maps/city-thameslink-a4.pdf",
        "borough": "City of London",
        "url_night": "https://tfl.gov.uk/cdn/static/cms/documents/bus-route-maps/city-thameslink-night-a4.pdf "
      }
    },
    {
      "type": "Feature",
      "geometry": {
        "type": "Point",
        "coordinates": [
          -0.0818980822691416,
          51.51731098087712
        ]
      },
      "properties": {
        "name": "Liverpool Street",
        "url": "https://tfl.gov.uk/cdn/static/cms/documents/bus-route-maps/liverpool-street-a4-170723.pdf",
        "borough": "City of London",
        "url_night": "https://tfl.gov.uk/cdn/static/cms/documents/bus-route-maps/liverpool-street-night-a4-170723.pdf "
      }
    },
    {
      "type": "Feature",
      "geometry": {
        "type": "Point",
        "coordinates": [
          -0.08660425213577057,
          51.51087595218072
        ]
      },
      "properties": {
        "name": "Monument and Cannon Street",
        "url": "https://tfl.gov.uk/cdn/static/cms/documents/bus-route-maps/monument-and-cannon-street-a4.pdf",
        "borough": "City of London"
      }
    },
    {
      "type": "Feature",
      "geometry": {
        "type": "Point",
        "coordinates": [
          -0.08727767292060298,
          51.520495329554905
        ]
      },
      "properties": {
        "name": "Moorgate",
        "url": "https://tfl.gov.uk/cdn/static/cms/documents/bus-route-maps/moorgate-a4.pdf",
        "borough": "City of London"
      }
    },
    {
      "type": "Feature",
      "geometry": {
        "type": "Point",
        "coordinates": [
          -0.09686233508431034,
          51.51460898994821
        ]
      },
      "properties": {
        "name": "St Pauls and Mansion House",
        "url": "https://tfl.gov.uk/cdn/static/cms/documents/bus-route-maps/st-pauls-and-mansion-house-a4.pdf",
        "borough": "City of London",
        "url_night": "https://tfl.gov.uk/cdn/static/cms/documents/bus-route-maps/st-pauls-and-mansion-house-night-a4.pdf "
      }
    },
    {
      "type": "Feature",
      "geometry": {
        "type": "Point",
        "coordinates": [
          -0.07679498598486839,
          51.50948979453377
        ]
      },
      "properties": {
        "name": "Tower of London",
        "url": "https://tfl.gov.uk/cdn/static/cms/documents/bus-route-maps/tower-of-london-a4.pdf",
        "borough": "City of London"
      }
    },
    {
      "type": "Feature",
      "geometry": {
        "type": "Point",
        "coordinates": [
          -0.05535212600918584,
          51.358481964468126
        ]
      },
      "properties": {
        "name": "Addington Hills and Coombe Lane",
        "url": "https://tfl.gov.uk/cdn/static/cms/documents/bus-route-maps/addington-hills-and-coombe-lane-a4-0318.pdf",
        "borough": "Croydon"
      }
    },
    {
      "type": "Feature",
      "geometry": {
        "type": "Point",
        "coordinates": [
          -0.07368497451012147,
          51.374375453110524
        ]
      },
      "properties": {
        "name": "Addiscombe Road",
        "url": "https://tfl.gov.uk/cdn/static/cms/documents/bus-route-maps/addiscombe-road.pdf",
        "borough": "Croydon"
      }
    },
    {
      "type": "Feature",
      "geometry": {
        "type": "Point",
        "coordinates": [
          -0.09680066022924122,
          51.37411538568757
        ]
      },
      "properties": {
        "name": "Croydon  - Night Buses",
        "url_night": "https://tfl.gov.uk/cdn/static/cms/documents/bus-route-maps/croydon-night-a4.pdf",
        "borough": "Croydon"
      }
    },
    {
      "type": "Feature",
      "geometry": {
        "type": "Point",
        "coordinates": [
          -0.06668548110922572,
          51.39287346398605
        ]
      },
      "properties": {
        "name": "Croydon Arena and South Norwood Leisure Centre",
        "url": "https://tfl.gov.uk/cdn/static/cms/documents/bus-route-maps/croydon-arena-and-south-norwood-leisure-centre-a4-020324.pdf",
        "borough": "Croydon"
      }
    },
    {
      "type": "Feature",
      "geometry": {
        "type": "Point",
        "coordinates": [
          -0.09853108142021129,
          51.372374907314835
        ]
      },
      "properties": {
        "name": "Croydon Town Centre",
        "url": "https://tfl.gov.uk/cdn/static/cms/documents/bus-route-maps/croydon-town-centre-a4.pdf",
        "borough": "Croydon"
      }
    },
    {
      "type": "Feature",
      "geometry": {
        "type": "Point",
        "coordinates": [
          -0.11152322356270127,
          51.38851061642902
        ]
      },
      "properties": {
        "name": "Croydon University Hospital",
        "url": "https://tfl.gov.uk/cdn/static/cms/documents/bus-route-maps/croydon-university-hospital-a4-0622.pdf",
        "borough": "Croydon"
      }
    },
    {
      "type": "Feature",
      "geometry": {
        "type": "Point",
        "coordinates": [
          -0.07850562383943381,
          51.41997675175978
        ]
      },
      "properties": {
        "name": "Crystal Palace",
        "url": "https://tfl.gov.uk/cdn/static/cms/documents/bus-route-maps/crystal-palace-a4-290423.pdf",
        "borough": "Croydon"
      }
    },
    {
      "type": "Feature",
      "geometry": {
        "type": "Point",
        "coordinates": [
          -0.024585449793273453,
          51.35187471215481
        ]
      },
      "properties": {
        "name": "Fieldway (New Addington)",
        "url": "https://tfl.gov.uk/cdn/static/cms/documents/bus-route-maps/fieldway-tram-stop-a4-0318.pdf",
        "borough": "Croydon"
      }
    },
    {
      "type": "Feature",
      "geometry": {
        "type": "Point",
        "coordinates": [
          -0.017283180054831388,
          51.342594279198465
        ]
      },
      "properties": {
        "name": "New Addington",
        "url": "https://tfl.gov.uk/cdn/static/cms/documents/bus-route-maps/new-addington-central-a4-0318.pdf",
        "borough": "Croydon"
      }
    },
    {
      "type": "Feature",
      "geometry": {
        "type": "Point",
        "coordinates": [
          -0.07462404620367243,
          51.39949371010253
        ]
      },
      "properties": {
        "name": "Norwood Junction",
        "url": "https://tfl.gov.uk/cdn/static/cms/documents/bus-route-maps/norwood-junction-a4.pdf",
        "borough": "Croydon"
      }
    },
    {
      "type": "Feature",
      "geometry": {
        "type": "Point",
        "coordinates": [
          -0.11686673846727624,
          51.33785122284679
        ]
      },
      "properties": {
        "name": "Purley",
        "url": "https://tfl.gov.uk/cdn/static/cms/documents/bus-route-maps/purley-a4.pdf",
        "borough": "Croydon"
      }
    },
    {
      "type": "Feature",
      "geometry": {
        "type": "Point",
        "coordinates": [
          -0.05638126027067733,
          51.373672262712965
        ]
      },
      "properties": {
        "name": "Shirley",
        "url": "https://tfl.gov.uk/cdn/static/cms/documents/bus-route-maps/shirley-a4-030224.pdf",
        "borough": "Croydon"
      }
    },
    {
      "type": "Feature",
      "geometry": {
        "type": "Point",
        "coordinates": [
          -0.09203873752696357,
          51.413770365089974
        ]
      },
      "properties": {
        "name": "Upper Norwood (Beulah Hill)",
        "url": "https://tfl.gov.uk/cdn/static/cms/documents/bus-route-maps/upper-norwood-beulah-hill-a4-310723.pdf",
        "borough": "Croydon"
      }
    },
    {
      "type": "Feature",
      "geometry": {
        "type": "Point",
        "coordinates": [
          -0.08688673458973403,
          51.410283831138614
        ]
      },
      "properties": {
        "name": "Upper Norwood (South Norwood Hill)",
        "url": "https://tfl.gov.uk/cdn/static/cms/documents/bus-route-maps/upper-norwood-south-norwood-hill-a4-310723.pdf",
        "borough": "Croydon"
      }
    },
    {
      "type": "Feature",
      "geometry": {
        "type": "Point",
        "coordinates": [
          -0.10114320646417314,
          51.379072759794326
        ]
      },
      "properties": {
        "name": "West Croydon",
        "url": "https://tfl.gov.uk/cdn/static/cms/documents/bus-route-maps/west-croydon-a4-020324.pdf",
        "borough": "Croydon"
      }
    },
    {
      "type": "Feature",
      "geometry": {
        "type": "Point",
        "coordinates": [
          -0.024199402240373237,
          51.37764594315278
        ]
      },
      "properties": {
        "name": "West Wickham",
        "url": "https://tfl.gov.uk/cdn/static/cms/documents/bus-route-maps/west-wickham-a4-030224.pdf",
        "borough": "Croydon"
      }
    },
    {
      "type": "Feature",
      "geometry": {
        "type": "Point",
        "coordinates": [
          -0.2744547969320362,
          51.50837196203343
        ]
      },
      "properties": {
        "name": "Acton Central",
        "url": "https://tfl.gov.uk/cdn/static/cms/documents/bus-route-maps/acton-central-a4-150723.pdf",
        "borough": "Ealing"
      }
    },
    {
      "type": "Feature",
      "geometry": {
        "type": "Point",
        "coordinates": [
          -0.39759744568612343,
          51.497375491802686
        ]
      },
      "properties": {
        "name": "Bulls Bridge",
        "url": "https://tfl.gov.uk/cdn/static/cms/documents/bus-route-maps/bulls-bridge-a4-0817.pdf",
        "borough": "Ealing"
      }
    },
    {
      "type": "Feature",
      "geometry": {
        "type": "Point",
        "coordinates": [
          -0.33126992162584834,
          51.515996843778545
        ]
      },
      "properties": {
        "name": "Drayton Green",
        "url": "https://tfl.gov.uk/cdn/static/cms/documents/bus-route-maps/drayton-green-190816.pdf",
        "borough": "Ealing"
      }
    },
    {
      "type": "Feature",
      "geometry": {
        "type": "Point",
        "coordinates": [
          -0.3043651317640216,
          51.51325615938744
        ]
      },
      "properties": {
        "name": "Ealing Broadway",
        "url": "https://tfl.gov.uk/cdn/static/cms/documents/bus-route-maps/ealing-broadway-a4-251123.pdf",
        "borough": "Ealing"
      }
    },
    {
      "type": "Feature",
      "geometry": {
        "type": "Point",
        "coordinates": [
          -0.291998329608614,
          51.51143466072031
        ]
      },
      "properties": {
        "name": "Ealing Common",
        "url": "https://tfl.gov.uk/cdn/static/cms/documents/bus-route-maps/ealing-common-a4-251123.pdf",
        "borough": "Ealing"
      }
    },
    {
      "type": "Feature",
      "geometry": {
        "type": "Point",
        "coordinates": [
          -0.3385068928754393,
          51.50876310587956
        ]
      },
      "properties": {
        "name": "Ealing Hospital (Hanwell)",
        "url": "https://tfl.gov.uk/cdn/static/cms/documents/bus-route-maps/hanwell-and-ealing-hospital-a4-150723.pdf",
        "borough": "Ealing"
      }
    },
    {
      "type": "Feature",
      "geometry": {
        "type": "Point",
        "coordinates": [
          -0.35231070573866163,
          51.52748494483324
        ]
      },
      "properties": {
        "name": "Greenford Broadway",
        "url": "https://tfl.gov.uk/cdn/static/cms/documents/bus-route-maps/greenford-broadway-a4-270523.pdf",
        "borough": "Ealing"
      }
    },
    {
      "type": "Feature",
      "geometry": {
        "type": "Point",
        "coordinates": [
          -0.268856522531813,
          51.52973349547273
        ]
      },
      "properties": {
        "name": "Park Royal (Central Middlesex Hospital)",
        "url": "https://tfl.gov.uk/cdn/static/cms/documents/bus-route-maps/park-royal-central-middlesex-hospital-a4-0622.pdf",
        "borough": "Ealing"
      }
    },
    {
      "type": "Feature",
      "geometry": {
        "type": "Point",
        "coordinates": [
          -0.31150128171864166,
          51.521271335003156
        ]
      },
      "properties": {
        "name": "Pitshanger (Ealing)",
        "url": "https://tfl.gov.uk/cdn/static/cms/documents/bus-route-maps/pitshanger-ealing-a4.pdf",
        "borough": "Ealing"
      }
    },
    {
      "type": "Feature",
      "geometry": {
        "type": "Point",
        "coordinates": [
          -0.30580521397772137,
          51.49832705495661
        ]
      },
      "properties": {
        "name": "South Ealing",
        "url": "https://tfl.gov.uk/cdn/static/cms/documents/bus-route-maps/south-ealing-a4-290423.pdf",
        "borough": "Ealing"
      }
    },
    {
      "type": "Feature",
      "geometry": {
        "type": "Point",
        "coordinates": [
          -0.3755924153734582,
          51.51121681438143
        ]
      },
      "properties": {
        "name": "Southall Broadway",
        "url": "https://tfl.gov.uk/cdn/static/cms/documents/bus-route-maps/southall-broadway-and-station-a4-150723.pdf",
        "borough": "Ealing"
      }
    },
    {
      "type": "Feature",
      "geometry": {
        "type": "Point",
        "coordinates": [
          -0.3136576,
          51.5527579
        ]
      },
      "properties": {
        "name": "Sudbury",
        "url": "https://tfl.gov.uk/cdn/static/cms/documents/bus-route-maps/sudbury-a4.pdf",
        "borough": "Ealing"
      }
    },
    {
      "type": "Feature",
      "geometry": {
        "type": "Point",
        "coordinates": [
          -0.33563570428639034,
          51.55741683015484
        ]
      },
      "properties": {
        "name": "Sudbury Hill",
        "url": "https://tfl.gov.uk/cdn/static/cms/documents/bus-route-maps/sudbury-hill-a4.pdf",
        "borough": "Ealing"
      }
    },
    {
      "type": "Feature",
      "geometry": {
        "type": "Point",
        "coordinates": [
          -0.048957774966979874,
          51.61178868141829
        ]
      },
      "properties": {
        "name": "Angel Road (Upper Edmonton)",
        "url": "https://tfl.gov.uk/cdn/static/cms/documents/bus-route-maps/angel-road-upper-edmonton-a4-091223.pdf",
        "borough": "Enfield"
      }
    },
    {
      "type": "Feature",
      "geometry": {
        "type": "Point",
        "coordinates": [
          -0.03068561573211884,
          51.65600106592571
        ]
      },
      "properties": {
        "name": "Brimsdown",
        "url": "https://tfl.gov.uk/cdn/static/cms/documents/bus-route-maps/brimsdown-1116.pdf",
        "borough": "Enfield"
      }
    },
    {
      "type": "Feature",
      "geometry": {
        "type": "Point",
        "coordinates": [
          -0.06861926483401423,
          51.641599713517614
        ]
      },
      "properties": {
        "name": "Bush Hill Park",
        "url": "https://tfl.gov.uk/cdn/static/cms/documents/bus-route-maps/bush-hill-park-a4.pdf",
        "borough": "Enfield"
      }
    },
    {
      "type": "Feature",
      "geometry": {
        "type": "Point",
        "coordinates": [
          -0.10421852796750931,
          51.663460552102705
        ]
      },
      "properties": {
        "name": "Chase Farm Hospital (Enfield)",
        "url": "https://tfl.gov.uk/cdn/static/cms/documents/bus-route-maps/chase-farm-hospital-a4.pdf",
        "borough": "Enfield"
      }
    },
    {
      "type": "Feature",
      "geometry": {
        "type": "Point",
        "coordinates": [
          -0.08687396618786496,
          51.66119526895532
        ]
      },
      "properties": {
        "name": "Chase Side and Gordon Hill",
        "url": "https://tfl.gov.uk/cdn/static/cms/documents/bus-route-maps/chase-side-and-gordon-hill.pdf",
        "borough": "Enfield"
      }
    },
    {
      "type": "Feature",
      "geometry": {
        "type": "Point",
        "coordinates": [
          -0.07818948398036117,
          51.62986444130949
        ]
      },
      "properties": {
        "name": "Edmonton Cemetery",
        "url": "https://tfl.gov.uk/cdn/static/cms/documents/bus-route-maps/edmonton-cemetery-a4.pdf",
        "borough": "Enfield"
      }
    },
    {
      "type": "Feature",
      "geometry": {
        "type": "Point",
        "coordinates": [
          -0.08334888035011903,
          51.65218163558661
        ]
      },
      "properties": {
        "name": "Enfield",
        "url": "https://tfl.gov.uk/cdn/static/cms/documents/bus-route-maps/enfield-a4-130321.pdf",
        "borough": "Enfield"
      }
    },
    {
      "type": "Feature",
      "geometry": {
        "type": "Point",
        "coordinates": [
          -0.060153934110014504,
          51.64945752779232
        ]
      },
      "properties": {
        "name": "Enfield Retail Park",
        "url": "https://tfl.gov.uk/cdn/static/cms/documents/bus-route-maps/enfield-retail-park-a4-0622.pdf",
        "borough": "Enfield"
      }
    },
    {
      "type": "Feature",
      "geometry": {
        "type": "Point",
        "coordinates": [
          -0.07620673299478918,
          51.6139346841113
        ]
      },
      "properties": {
        "name": "North Middlesex Hospital",
        "url": "https://tfl.gov.uk/cdn/static/cms/documents/bus-route-maps/north-middlesex-hospital-a4-261122.pdf",
        "borough": "Enfield"
      }
    },
    {
      "type": "Feature",
      "geometry": {
        "type": "Point",
        "coordinates": [
          -0.13286446507926644,
          51.647687752830926
        ]
      },
      "properties": {
        "name": "Oakwood",
        "url": "https://tfl.gov.uk/cdn/static/cms/documents/bus-route-maps/oakwood-a4.pdf",
        "borough": "Enfield"
      }
    },
    {
      "type": "Feature",
      "geometry": {
        "type": "Point",
        "coordinates": [
          -0.10959995904475212,
          51.615708462561635
        ]
      },
      "properties": {
        "name": "Palmers Green",
        "url": "https://tfl.gov.uk/cdn/static/cms/documents/bus-route-maps/palmers-green-a4-091223.pdf",
        "borough": "Enfield"
      }
    },
    {
      "type": "Feature",
      "geometry": {
        "type": "Point",
        "coordinates": [
          -0.03467880322741051,
          51.64569941167679
        ]
      },
      "properties": {
        "name": "Ponders End station",
        "url": "https://tfl.gov.uk/cdn/static/cms/documents/bus-route-maps/ponders-end-station-a4-0518.pdf",
        "borough": "Enfield"
      }
    },
    {
      "type": "Feature",
      "geometry": {
        "type": "Point",
        "coordinates": [
          -0.06441664840088276,
          51.614674642305665
        ]
      },
      "properties": {
        "name": "Silver Street (Edmonton Angel)",
        "url": "https://tfl.gov.uk/cdn/static/cms/documents/bus-route-maps/silver-street-a4-190816.pdf",
        "borough": "Enfield"
      }
    },
    {
      "type": "Feature",
      "geometry": {
        "type": "Point",
        "coordinates": [
          -0.12181986341959139,
          51.620843062831625
        ]
      },
      "properties": {
        "name": "Southgate (The Green and Broomfield Park)",
        "url": "https://tfl.gov.uk/cdn/static/cms/documents/bus-route-maps/southgate-the-green-and-broomfield-park-a4-131117.pdf",
        "borough": "Enfield"
      }
    },
    {
      "type": "Feature",
      "geometry": {
        "type": "Point",
        "coordinates": [
          -0.0681683388554108,
          51.6055685065004
        ]
      },
      "properties": {
        "name": "Tottenham Hotspur Stadium",
        "url": "https://tfl.gov.uk/cdn/static/cms/documents/bus-route-maps/tottenham-hotspur-stadium-a4.pdf",
        "borough": "Enfield"
      }
    },
    {
      "type": "Feature",
      "geometry": {
        "type": "Point",
        "coordinates": [
          0.12194346779013651,
          51.49108343458574
        ]
      },
      "properties": {
        "name": "Abbey Wood",
        "url": "https://tfl.gov.uk/cdn/static/cms/documents/bus-route-maps/abbey-wood-a4-240224.pdf",
        "borough": "Greenwich"
      }
    },
    {
      "type": "Feature",
      "geometry": {
        "type": "Point",
        "coordinates": [
          0.03230464953646362,
          51.48645906343605
        ]
      },
      "properties": {
        "name": "Charlton",
        "url": "https://tfl.gov.uk/cdn/static/cms/documents/bus-route-maps/charlton-a4-290723.pdf",
        "borough": "Greenwich"
      }
    },
    {
      "type": "Feature",
      "geometry": {
        "type": "Point",
        "coordinates": [
          -0.022783390517164173,
          51.47628509420725
        ]
      },
      "properties": {
        "name": "Deptford",
        "url": "https://tfl.gov.uk/cdn/static/cms/documents/bus-route-maps/deptford-a4-300923.pdf",
        "borough": "Greenwich"
      }
    },
    {
      "type": "Feature",
      "geometry": {
        "type": "Point",
        "coordinates": [
          0.03536493645312033,
          51.45278639665898
        ]
      },
      "properties": {
        "name": "Eltham Green",
        "url": "https://tfl.gov.uk/cdn/static/cms/documents/bus-route-maps/eltham-green-a4.pdf",
        "borough": "Greenwich"
      }
    },
    {
      "type": "Feature",
      "geometry": {
        "type": "Point",
        "coordinates": [
          0.06269573274899586,
          51.45072425544961
        ]
      },
      "properties": {
        "name": "Eltham High Street",
        "url": "https://tfl.gov.uk/cdn/static/cms/documents/bus-route-maps/eltham-high-street-a4.pdf",
        "borough": "Greenwich"
      }
    },
    {
      "type": "Feature",
      "geometry": {
        "type": "Point",
        "coordinates": [
          0.052171514827144876,
          51.45078623674108
        ]
      },
      "properties": {
        "name": "Eltham station",
        "url": "https://tfl.gov.uk/cdn/static/cms/documents/bus-route-maps/eltham-station-eltham-church-a4.pdf",
        "borough": "Greenwich"
      }
    },
    {
      "type": "Feature",
      "geometry": {
        "type": "Point",
        "coordinates": [
          0.049451649771029234,
          51.46055876579838
        ]
      },
      "properties": {
        "name": "Eltham, Well Hall",
        "url": "https://tfl.gov.uk/cdn/static/cms/documents/bus-route-maps/eltham-well-hall-a4-1216.pdf",
        "borough": "Greenwich"
      }
    },
    {
      "type": "Feature",
      "geometry": {
        "type": "Point",
        "coordinates": [
          0.07848955610223286,
          51.45929672245936
        ]
      },
      "properties": {
        "name": "Falconwood",
        "url": "https://tfl.gov.uk/cdn/static/cms/documents/bus-route-maps/falconwood-a4.pdf",
        "borough": "Greenwich"
      }
    },
    {
      "type": "Feature",
      "geometry": {
        "type": "Point",
        "coordinates": [
          -0.010079499230277438,
          51.48143549235559
        ]
      },
      "properties": {
        "name": "Greenwich",
        "url": "https://tfl.gov.uk/cdn/static/cms/documents/bus-route-maps/greenwich-a4.pdf",
        "borough": "Greenwich"
      }
    },
    {
      "type": "Feature",
      "geometry": {
        "type": "Point",
        "coordinates": [
          0.0034849211058788844,
          51.50019251000879
        ]
      },
      "properties": {
        "name": "North Greenwich",
        "url": "https://tfl.gov.uk/cdn/static/cms/documents/bus-route-maps/north-greenwich-a4.pdf",
        "borough": "Greenwich"
      }
    },
    {
      "type": "Feature",
      "geometry": {
        "type": "Point",
        "coordinates": [
          0.05055295307185645,
          51.47659774436159
        ]
      },
      "properties": {
        "name": "Queen Elizabeth Hospital",
        "url": "https://tfl.gov.uk/cdn/static/cms/documents/bus-route-maps/queen-elizabeth-hospital-a4-290723.pdf",
        "borough": "Greenwich"
      }
    },
    {
      "type": "Feature",
      "geometry": {
        "type": "Point",
        "coordinates": [
          0.05501851914916533,
          51.471106802001714
        ]
      },
      "properties": {
        "name": "Shooters Hill",
        "url": "https://tfl.gov.uk/cdn/static/cms/documents/bus-route-maps/shooters-hill-a4-290723.pdf",
        "borough": "Greenwich"
      }
    },
    {
      "type": "Feature",
      "geometry": {
        "type": "Point",
        "coordinates": [
          0.06691818798377348,
          51.49015008157077
        ]
      },
      "properties": {
        "name": "Woolwich",
        "url": "https://tfl.gov.uk/cdn/static/cms/documents/bus-route-maps/woolwich-a4-140522.pdf",
        "borough": "Greenwich"
      }
    },
    {
      "type": "Feature",
      "geometry": {
        "type": "Point",
        "coordinates": [
          -0.05510673084102168,
          51.54668082641069
        ]
      },
      "properties": {
        "name": "Hackney Central",
        "url": "https://tfl.gov.uk/cdn/static/cms/documents/bus-route-maps/hackney-central-a4-0622.pdf",
        "borough": "Hackney",
        "url_night": "https://tfl.gov.uk/cdn/static/cms/documents/bus-route-maps/hackney-central-night-a4-0622.pdf"
      }
    },
    {
      "type": "Feature",
      "geometry": {
        "type": "Point",
        "coordinates": [
          -0.04207594511981926,
          51.54863466998303
        ]
      },
      "properties": {
        "name": "Homerton",
        "url": "https://tfl.gov.uk/cdn/static/cms/documents/bus-route-maps/homerton-a4-0622.pdf",
        "borough": "Hackney"
      }
    },
    {
      "type": "Feature",
      "geometry": {
        "type": "Point",
        "coordinates": [
          -0.019516987599203114,
          51.552536929284386
        ]
      },
      "properties": {
        "name": "iCity and Lee Valley Hockey and Tennis Centre",
        "url": "https://tfl.gov.uk/cdn/static/cms/documents/bus-route-maps/icity-and-lee-valley-hockey-and-tennis-centre-a4-0717.pdf",
        "borough": "Hackney"
      }
    },
    {
      "type": "Feature",
      "geometry": {
        "type": "Point",
        "coordinates": [
          -0.0876263750390284,
          51.525716684569886
        ]
      },
      "properties": {
        "name": "Old Street and Moorfields Eye Hospital",
        "url": "https://tfl.gov.uk/cdn/static/cms/documents/bus-route-maps/old-street-and-moorfields-eye-hospital-a4-0923.pdf",
        "borough": "Hackney",
        "url_night": "https://tfl.gov.uk/cdn/static/cms/documents/bus-route-maps/old-street-and-moorfields-eye-hosp-night-a4.pdf "
      }
    },
    {
      "type": "Feature",
      "geometry": {
        "type": "Point",
        "coordinates": [
          -0.2192915679471392,
          51.483532681582204
        ]
      },
      "properties": {
        "name": "Charing Cross Hospital (Hammersmith)",
        "url": "https://tfl.gov.uk/cdn/static/cms/documents/bus-route-maps/charing-cross-hospital-a4.pdf",
        "borough": "Hammersmith & Fulham",
        "url_night": "https://tfl.gov.uk/cdn/static/cms/documents/bus-route-maps/charing-cross-hospital-night-a4-290423.pdf "
      }
    },
    {
      "type": "Feature",
      "geometry": {
        "type": "Point",
        "coordinates": [
          -0.23733195726937875,
          51.532200221693984
        ]
      },
      "properties": {
        "name": "College Park and Scrubs Lane",
        "url": "https://tfl.gov.uk/cdn/static/cms/documents/bus-route-maps/college-park-and-scrubs-lane-a4.pdf",
        "borough": "Hammersmith & Fulham"
      }
    },
    {
      "type": "Feature",
      "geometry": {
        "type": "Point",
        "coordinates": [
          -0.21113515808375202,
          51.47161910309352
        ]
      },
      "properties": {
        "name": "Fulham and Putney Bridge",
        "url": "https://tfl.gov.uk/cdn/static/cms/documents/bus-route-maps/fulham-and-putney-bridge-a4.pdf",
        "borough": "Hammersmith & Fulham",
        "url_night": "https://tfl.gov.uk/cdn/static/cms/documents/bus-route-maps/fulham-and-putney-bridge-night-a4-0622.pdf "
      }
    },
    {
      "type": "Feature",
      "geometry": {
        "type": "Point",
        "coordinates": [
          -0.1956236167885899,
          51.480007901981146
        ]
      },
      "properties": {
        "name": "Fulham Broadway",
        "url": "https://tfl.gov.uk/cdn/static/cms/documents/bus-route-maps/fulham-broadway-a4.pdf",
        "borough": "Hammersmith & Fulham"
      }
    },
    {
      "type": "Feature",
      "geometry": {
        "type": "Point",
        "coordinates": [
          -0.2236401,
          51.4920377
        ]
      },
      "properties": {
        "name": "Hammersmith",
        "url": "https://tfl.gov.uk/cdn/static/cms/documents/bus-route-maps/hammersmith-a4.pdf",
        "borough": "Hammersmith & Fulham",
        "url_night": "https://tfl.gov.uk/cdn/static/cms/documents/bus-route-maps/hammersmith-night-a4-090923.pdf"
      }
    },
    {
      "type": "Feature",
      "geometry": {
        "type": "Point",
        "coordinates": [
          -0.20583786064708923,
          51.496658302371
        ]
      },
      "properties": {
        "name": "Kensington Olympia",
        "url": "https://tfl.gov.uk/cdn/static/cms/documents/bus-route-maps/kensington-olympia-a4-290423.pdf",
        "borough": "Hammersmith & Fulham"
      }
    },
    {
      "type": "Feature",
      "geometry": {
        "type": "Point",
        "coordinates": [
          -0.23454905827581393,
          51.5064775641827
        ]
      },
      "properties": {
        "name": "QPR Loftus Road Stadium",
        "url": "https://tfl.gov.uk/cdn/static/cms/documents/bus-route-maps/qpr-loftus-road-stadium-a4-150723.pdf",
        "borough": "Hammersmith & Fulham"
      }
    },
    {
      "type": "Feature",
      "geometry": {
        "type": "Point",
        "coordinates": [
          -0.2225475876051578,
          51.50417838868107
        ]
      },
      "properties": {
        "name": "Shepherd's Bush",
        "url": "https://tfl.gov.uk/cdn/static/cms/documents/bus-route-maps/shepherds-bush-a4-101223.pdf",
        "borough": "Hammersmith & Fulham"
      }
    },
    {
      "type": "Feature",
      "geometry": {
        "type": "Point",
        "coordinates": [
          -0.22453463700922238,
          51.50950771552481
        ]
      },
      "properties": {
        "name": "White City",
        "url": "https://tfl.gov.uk/cdn/static/cms/documents/bus-route-maps/white-city-a4-101223.pdf",
        "borough": "Hammersmith & Fulham"
      }
    },
    {
      "type": "Feature",
      "geometry": {
        "type": "Point",
        "coordinates": [
          -0.23397025903645438,
          51.51630417886401
        ]
      },
      "properties": {
        "name": "Wormwood Scrubs and Hammersmith Hospital",
        "url": "https://tfl.gov.uk/cdn/static/cms/documents/bus-route-maps/wormwood-scrubs-and-hammersmith-hospital-a4-270523.pdf",
        "borough": "Hammersmith & Fulham"
      }
    },
    {
      "type": "Feature",
      "geometry": {
        "type": "Point",
        "coordinates": [
          -0.1210761557150599,
          51.59727527684384
        ]
      },
      "properties": {
        "name": "Alexandra Palace",
        "url": "https://tfl.gov.uk/cdn/static/cms/documents/bus-route-maps/alexandra-palace-a4-190816.pdf",
        "borough": "Haringey"
      }
    },
    {
      "type": "Feature",
      "geometry": {
        "type": "Point",
        "coordinates": [
          -0.11510738687177918,
          51.57062993356566
        ]
      },
      "properties": {
        "name": "Crouch Hill and Stroud Green",
        "url": "https://tfl.gov.uk/cdn/static/cms/documents/bus-route-maps/crouch-hill-and-stroud-green-a4.pdf",
        "borough": "Haringey"
      }
    },
    {
      "type": "Feature",
      "geometry": {
        "type": "Point",
        "coordinates": [
          -0.1064144,
          51.5648345
        ]
      },
      "properties": {
        "name": "Finsbury Park",
        "url": "https://tfl.gov.uk/cdn/static/cms/documents/bus-route-maps/finsbury-park-a4.pdf",
        "borough": "Haringey",
        "url_night": "https://tfl.gov.uk/cdn/static/cms/documents/bus-route-maps/finsbury-park-night-a4-0622.pdf"
      }
    },
    {
      "type": "Feature",
      "geometry": {
        "type": "Point",
        "coordinates": [
          -0.09890079098540987,
          51.57811870106416
        ]
      },
      "properties": {
        "name": "Harringay",
        "url": "https://tfl.gov.uk/cdn/static/cms/documents/bus-route-maps/harringay-a4.pdf",
        "borough": "Haringey"
      }
    },
    {
      "type": "Feature",
      "geometry": {
        "type": "Point",
        "coordinates": [
          -0.13381363673314012,
          51.58756711240806
        ]
      },
      "properties": {
        "name": "Muswell Hill West",
        "url": "https://tfl.gov.uk/cdn/static/cms/documents/bus-route-maps/muswell-hill-west-190816.pdf",
        "borough": "Haringey"
      }
    },
    {
      "type": "Feature",
      "geometry": {
        "type": "Point",
        "coordinates": [
          -0.0681576168840141,
          51.60556575407382
        ]
      },
      "properties": {
        "name": "Tottenham Hotspur Stadium",
        "url": "https://tfl.gov.uk/cdn/static/cms/documents/bus-route-maps/tottenham-hotspur-stadium-a4.pdf",
        "borough": "Haringey"
      }
    },
    {
      "type": "Feature",
      "geometry": {
        "type": "Point",
        "coordinates": [
          -0.33404676310300396,
          51.58001725293508
        ]
      },
      "properties": {
        "name": "Harrow-on-the-hill",
        "url": "https://tfl.gov.uk/cdn/static/cms/documents/bus-route-maps/harrow-on-the-hill-a4-251123.pdf",
        "borough": "Harrow"
      }
    },
    {
      "type": "Feature",
      "geometry": {
        "type": "Point",
        "coordinates": [
          -0.35968736062871765,
          51.60864106414626
        ]
      },
      "properties": {
        "name": "Hatch End and Headstone Lane",
        "url": "https://tfl.gov.uk/cdn/static/cms/documents/bus-route-maps/hatch-end-and-headstone-lane-a4-0518.pdf",
        "borough": "Harrow"
      }
    },
    {
      "type": "Feature",
      "geometry": {
        "type": "Point",
        "coordinates": [
          -0.3182578633530802,
          51.5785214982753
        ]
      },
      "properties": {
        "name": "Northwick Park and Kenton station",
        "url": "https://tfl.gov.uk/cdn/static/cms/documents/bus-route-maps/northwick-park-and-kenton-a4.pdf",
        "borough": "Harrow"
      }
    },
    {
      "type": "Feature",
      "geometry": {
        "type": "Point",
        "coordinates": [
          -0.3356306833922856,
          51.55741763999505
        ]
      },
      "properties": {
        "name": "Sudbury Hill",
        "url": "https://tfl.gov.uk/cdn/static/cms/documents/bus-route-maps/sudbury-hill-a4.pdf",
        "borough": "Harrow"
      }
    },
    {
      "type": "Feature",
      "geometry": {
        "type": "Point",
        "coordinates": [
          0.21027520854820797,
          51.560080145906504
        ]
      },
      "properties": {
        "name": "Abbs Cross",
        "url": "https://tfl.gov.uk/cdn/static/cms/documents/bus-route-maps/abbs-cross-a4.pdf",
        "borough": "Havering"
      }
    },
    {
      "type": "Feature",
      "geometry": {
        "type": "Point",
        "coordinates": [
          0.20793605873370563,
          51.5782026711761
        ]
      },
      "properties": {
        "name": "Ardleigh Green (Gidea Park)",
        "url": "https://tfl.gov.uk/cdn/static/cms/documents/bus-route-maps/ardleigh-green-gidea-park-a4-010522.pdf",
        "borough": "Havering"
      }
    },
    {
      "type": "Feature",
      "geometry": {
        "type": "Point",
        "coordinates": [
          0.13023592377547896,
          51.570753119366785
        ]
      },
      "properties": {
        "name": "Chadwell Heath",
        "url": "https://tfl.gov.uk/cdn/static/cms/documents/bus-route-maps/chadwell-heath-a4-010522.pdf",
        "borough": "Havering"
      }
    },
    {
      "type": "Feature",
      "geometry": {
        "type": "Point",
        "coordinates": [
          0.17762274113210347,
          51.59988649689118
        ]
      },
      "properties": {
        "name": "Chase Cross (Romford)",
        "url": "https://tfl.gov.uk/cdn/static/cms/documents/bus-route-maps/chase-cross-romford-a4.pdf",
        "borough": "Havering"
      }
    },
    {
      "type": "Feature",
      "geometry": {
        "type": "Point",
        "coordinates": [
          0.16336620108495473,
          51.59939389385981
        ]
      },
      "properties": {
        "name": "Collier Row",
        "url": "https://tfl.gov.uk/cdn/static/cms/documents/bus-route-maps/collier-row-a4-0417.pdf",
        "borough": "Havering"
      }
    },
    {
      "type": "Feature",
      "geometry": {
        "type": "Point",
        "coordinates": [
          0.19996814622520126,
          51.54848682267637
        ]
      },
      "properties": {
        "name": "Elm Park",
        "url": "https://tfl.gov.uk/cdn/static/cms/documents/bus-route-maps/elm-park-a4-0217.pdf",
        "borough": "Havering"
      }
    },
    {
      "type": "Feature",
      "geometry": {
        "type": "Point",
        "coordinates": [
          0.21876107764266264,
          51.57223995335425
        ]
      },
      "properties": {
        "name": "Emerson Park",
        "url": "https://tfl.gov.uk/cdn/static/cms/documents/bus-route-maps/emerson-park-a4.pdf",
        "borough": "Havering"
      }
    },
    {
      "type": "Feature",
      "geometry": {
        "type": "Point",
        "coordinates": [
          0.20989578095729491,
          51.58441719972678
        ]
      },
      "properties": {
        "name": "Gidea Park",
        "url": "https://tfl.gov.uk/cdn/static/cms/documents/bus-route-maps/gidea-park-a4.pdf",
        "borough": "Havering"
      }
    },
    {
      "type": "Feature",
      "geometry": {
        "type": "Point",
        "coordinates": [
          0.2327716952230794,
          51.593191815687305
        ]
      },
      "properties": {
        "name": "Harold Wood",
        "url": "https://tfl.gov.uk/cdn/static/cms/documents/bus-route-maps/haroldwood-a4.pdf",
        "borough": "Havering"
      }
    },
    {
      "type": "Feature",
      "geometry": {
        "type": "Point",
        "coordinates": [
          0.22050093432166873,
          51.55866246524688
        ]
      },
      "properties": {
        "name": "Hornchurch",
        "url": "https://tfl.gov.uk/cdn/static/cms/documents/bus-route-maps/hornchurch-a4.pdf",
        "borough": "Havering"
      }
    },
    {
      "type": "Feature",
      "geometry": {
        "type": "Point",
        "coordinates": [
          0.2010937144980743,
          51.53892033148793
        ]
      },
      "properties": {
        "name": "Mungo Park and Airfield Estate",
        "url": "https://tfl.gov.uk/cdn/static/cms/documents/bus-route-maps/mungo-park-and-airfield-estate-a4.pdf",
        "borough": "Havering"
      }
    },
    {
      "type": "Feature",
      "geometry": {
        "type": "Point",
        "coordinates": [
          0.18145693273436658,
          51.568642934600014
        ]
      },
      "properties": {
        "name": "Queen's Hospital (Romford)",
        "url": "https://tfl.gov.uk/cdn/static/cms/documents/bus-route-maps/queens-hospital-romford-a4-010622.pdf",
        "borough": "Havering"
      }
    },
    {
      "type": "Feature",
      "geometry": {
        "type": "Point",
        "coordinates": [
          0.18939029691445886,
          51.51972545615235
        ]
      },
      "properties": {
        "name": "Rainham",
        "url": "https://tfl.gov.uk/cdn/static/cms/documents/bus-route-maps/rainham-a4.pdf",
        "borough": "Havering"
      }
    },
    {
      "type": "Feature",
      "geometry": {
        "type": "Point",
        "coordinates": [
          0.17682478662386744,
          51.52392376286703
        ]
      },
      "properties": {
        "name": "Rainham (Orchard Village)",
        "url": "https://tfl.gov.uk/cdn/static/cms/documents/bus-route-maps/rainham-orchard-village-a4.pdf",
        "borough": "Havering"
      }
    },
    {
      "type": "Feature",
      "geometry": {
        "type": "Point",
        "coordinates": [
          0.18908778160387357,
          51.56182559763751
        ]
      },
      "properties": {
        "name": "Romford (Roneo Corner)",
        "url": "https://tfl.gov.uk/cdn/static/cms/documents/bus-route-maps/romford-roneo-corner-a4-300917.pdf",
        "borough": "Havering"
      }
    },
    {
      "type": "Feature",
      "geometry": {
        "type": "Point",
        "coordinates": [
          0.17727821005353053,
          51.57646907069168
        ]
      },
      "properties": {
        "name": "Romford Brewery and Stadium",
        "url": "https://tfl.gov.uk/cdn/static/cms/documents/bus-route-maps/romford-brewery-and-stadium-a4.pdf",
        "borough": "Havering"
      }
    },
    {
      "type": "Feature",
      "geometry": {
        "type": "Point",
        "coordinates": [
          0.18880174303279654,
          51.57169197173839
        ]
      },
      "properties": {
        "name": "Romford South",
        "url": "https://tfl.gov.uk/cdn/static/cms/documents/bus-route-maps/romford-south-a4-300917.pdf",
        "borough": "Havering"
      }
    },
    {
      "type": "Feature",
      "geometry": {
        "type": "Point",
        "coordinates": [
          0.18356049306805966,
          51.57495402246876
        ]
      },
      "properties": {
        "name": "Romford station",
        "url": "https://tfl.gov.uk/cdn/static/cms/documents/bus-route-maps/romford-station-a4.pdf",
        "borough": "Havering"
      }
    },
    {
      "type": "Feature",
      "geometry": {
        "type": "Point",
        "coordinates": [
          0.17238204544075533,
          51.58569926837651
        ]
      },
      "properties": {
        "name": "Romford, North Street",
        "url": "https://tfl.gov.uk/cdn/static/cms/documents/bus-route-maps/romford-north-street-a4-0517.pdf",
        "borough": "Havering"
      }
    },
    {
      "type": "Feature",
      "geometry": {
        "type": "Point",
        "coordinates": [
          0.17620541374062731,
          51.565500502326934
        ]
      },
      "properties": {
        "name": "Rush Green (Romford)",
        "url": "https://tfl.gov.uk/cdn/static/cms/documents/bus-route-maps/rush-green-romford-a4.pdf",
        "borough": "Havering"
      }
    },
    {
      "type": "Feature",
      "geometry": {
        "type": "Point",
        "coordinates": [
          0.18342694175328708,
          51.533042891283955
        ]
      },
      "properties": {
        "name": "South Hornchurch",
        "url": "https://tfl.gov.uk/cdn/static/cms/documents/bus-route-maps/south-hornchurch-a4.pdf",
        "borough": "Havering"
      }
    },
    {
      "type": "Feature",
      "geometry": {
        "type": "Point",
        "coordinates": [
          0.2180961122840756,
          51.54983630623191
        ]
      },
      "properties": {
        "name": "St George's Hospital (Hornchurch)",
        "url": "https://tfl.gov.uk/cdn/static/cms/documents/bus-route-maps/st-georges-hospital-hornchurch.pdf",
        "borough": "Havering"
      }
    },
    {
      "type": "Feature",
      "geometry": {
        "type": "Point",
        "coordinates": [
          0.25003483907023843,
          51.5581778375866
        ]
      },
      "properties": {
        "name": "Upminster",
        "url": "https://tfl.gov.uk/cdn/static/cms/documents/bus-route-maps/upminster-a4.pdf",
        "borough": "Havering"
      }
    },
    {
      "type": "Feature",
      "geometry": {
        "type": "Point",
        "coordinates": [
          0.23131038170835413,
          51.559855983186175
        ]
      },
      "properties": {
        "name": "Upminster Bridge",
        "url": "https://tfl.gov.uk/cdn/static/cms/documents/bus-route-maps/upminster-bridge-190315.pdf",
        "borough": "Havering"
      }
    },
    {
      "type": "Feature",
      "geometry": {
        "type": "Point",
        "coordinates": [
          -0.4190705160257819,
          51.532213854226605
        ]
      },
      "properties": {
        "name": "Charville and Hayes Park",
        "url": "https://tfl.gov.uk/cdn/static/cms/documents/bus-route-maps/charville-and-hayes-park-a4-0817.pdf",
        "borough": "Hillingdon"
      }
    },
    {
      "type": "Feature",
      "geometry": {
        "type": "Point",
        "coordinates": [
          -0.4552214264196676,
          51.52036404981249
        ]
      },
      "properties": {
        "name": "Colham Green",
        "url": "https://tfl.gov.uk/cdn/static/cms/documents/bus-route-maps/colham-green-a4-0817.pdf",
        "borough": "Hillingdon"
      }
    },
    {
      "type": "Feature",
      "geometry": {
        "type": "Point",
        "coordinates": [
          -0.48196788902152354,
          51.52959564330796
        ]
      },
      "properties": {
        "name": "Cowley",
        "url": "https://tfl.gov.uk/cdn/static/cms/documents/bus-route-maps/cowley-a4-0817.pdf",
        "borough": "Hillingdon"
      }
    },
    {
      "type": "Feature",
      "geometry": {
        "type": "Point",
        "coordinates": [
          -0.40031891807141773,
          51.58056987551495
        ]
      },
      "properties": {
        "name": "Eastcote",
        "url": "https://tfl.gov.uk/cdn/static/cms/documents/bus-route-maps/eastcote-a4.pdf",
        "borough": "Hillingdon"
      }
    },
    {
      "type": "Feature",
      "geometry": {
        "type": "Point",
        "coordinates": [
          -0.42318028230223914,
          51.46672437742039
        ]
      },
      "properties": {
        "name": "Hatton Cross",
        "url": "https://tfl.gov.uk/cdn/static/cms/documents/bus-route-maps/hatton-cross-a4-190823.pdf",
        "borough": "Hillingdon"
      }
    },
    {
      "type": "Feature",
      "geometry": {
        "type": "Point",
        "coordinates": [
          -0.42267467219552485,
          51.513180113919155
        ]
      },
      "properties": {
        "name": "Hayes (Middlesex)",
        "url": "https://tfl.gov.uk/cdn/static/cms/documents/bus-route-maps/hayes-middlesex-a4-0622.pdf",
        "borough": "Hillingdon"
      }
    },
    {
      "type": "Feature",
      "geometry": {
        "type": "Point",
        "coordinates": [
          -0.45298097968777384,
          51.48130196939072
        ]
      },
      "properties": {
        "name": "Heathrow Airport North",
        "url": "https://tfl.gov.uk/cdn/static/cms/documents/bus-route-maps/heathrow-airport-north-a4-120621.pdf",
        "borough": "Hillingdon"
      }
    },
    {
      "type": "Feature",
      "geometry": {
        "type": "Point",
        "coordinates": [
          -0.45323682661304027,
          51.471378272641346
        ]
      },
      "properties": {
        "name": "Heathrow Terminal 2 & 3",
        "url": "https://tfl.gov.uk/cdn/static/cms/documents/bus-route-maps/heathrow-terminals-2-and-3-a4-260823.pdf",
        "borough": "Hillingdon"
      }
    },
    {
      "type": "Feature",
      "geometry": {
        "type": "Point",
        "coordinates": [
          -0.46284329711362404,
          51.52733727207679
        ]
      },
      "properties": {
        "name": "Hillingdon Hospital",
        "url": "https://tfl.gov.uk/cdn/static/cms/documents/bus-route-maps/hillingdon-hospital-a4.pdf",
        "borough": "Hillingdon"
      }
    },
    {
      "type": "Feature",
      "geometry": {
        "type": "Point",
        "coordinates": [
          -0.4766524244353191,
          51.481709662461625
        ]
      },
      "properties": {
        "name": "Longford and Harmondsworth",
        "url": "https://tfl.gov.uk/cdn/static/cms/documents/bus-route-maps/longford-and-harmondsworth-a4.pdf",
        "borough": "Hillingdon"
      }
    },
    {
      "type": "Feature",
      "geometry": {
        "type": "Point",
        "coordinates": [
          -0.4390269644109768,
          51.61489981770591
        ]
      },
      "properties": {
        "name": "Mount Vernon Hospital",
        "url": "https://tfl.gov.uk/cdn/static/cms/documents/bus-route-maps/mount-vernon-hospital-a4.pdf",
        "borough": "Hillingdon"
      }
    },
    {
      "type": "Feature",
      "geometry": {
        "type": "Point",
        "coordinates": [
          -0.42396619741440594,
          51.61149277448135
        ]
      },
      "properties": {
        "name": "Northwood",
        "url": "https://tfl.gov.uk/cdn/static/cms/documents/bus-route-maps/northwood-a4.pdf",
        "borough": "Hillingdon"
      }
    },
    {
      "type": "Feature",
      "geometry": {
        "type": "Point",
        "coordinates": [
          -0.44464360395976765,
          51.51181848413805
        ]
      },
      "properties": {
        "name": "Stockley Park",
        "url": "https://tfl.gov.uk/cdn/static/cms/documents/bus-route-maps/stockley-park-a4-0817.pdf",
        "borough": "Hillingdon"
      }
    },
    {
      "type": "Feature",
      "geometry": {
        "type": "Point",
        "coordinates": [
          -0.4738680727948252,
          51.51036834493858
        ]
      },
      "properties": {
        "name": "West Drayton",
        "url": "https://tfl.gov.uk/cdn/static/cms/documents/bus-route-maps/west-drayton-a4-0817.pdf",
        "borough": "Hillingdon"
      }
    },
    {
      "type": "Feature",
      "geometry": {
        "type": "Point",
        "coordinates": [
          -0.47581463481370734,
          51.51602932883494
        ]
      },
      "properties": {
        "name": "Yiewsley",
        "url": "https://tfl.gov.uk/cdn/static/cms/documents/bus-route-maps/yiewsley-a4-0817.pdf",
        "borough": "Hillingdon"
      }
    },
    {
      "type": "Feature",
      "geometry": {
        "type": "Point",
        "coordinates": [
          -0.43667505673118884,
          51.45170322793163
        ]
      },
      "properties": {
        "name": "Bedfont",
        "url": "https://tfl.gov.uk/cdn/static/cms/documents/bus-route-maps/bedfont-a4.pdf",
        "borough": "Hounslow"
      }
    },
    {
      "type": "Feature",
      "geometry": {
        "type": "Point",
        "coordinates": [
          -0.30800631969667236,
          51.48818438108196
        ]
      },
      "properties": {
        "name": "Brentford station (Griffin Park)",
        "url": "https://tfl.gov.uk/cdn/static/cms/documents/bus-route-maps/brentford-station-griffin-park-a4-201018.pdf",
        "borough": "Hounslow"
      }
    },
    {
      "type": "Feature",
      "geometry": {
        "type": "Point",
        "coordinates": [
          -0.3976009711691078,
          51.49737941604739
        ]
      },
      "properties": {
        "name": "Bulls Bridge",
        "url": "https://tfl.gov.uk/cdn/static/cms/documents/bus-route-maps/bulls-bridge-a4-0817.pdf",
        "borough": "Hounslow"
      }
    },
    {
      "type": "Feature",
      "geometry": {
        "type": "Point",
        "coordinates": [
          -0.39372660646069646,
          51.484402989238525
        ]
      },
      "properties": {
        "name": "Cranford North",
        "url": "https://tfl.gov.uk/cdn/static/cms/documents/bus-route-maps/cranford-north-a4-0418.pdf",
        "borough": "Hounslow"
      }
    },
    {
      "type": "Feature",
      "geometry": {
        "type": "Point",
        "coordinates": [
          -0.41116963226776543,
          51.44412721523456
        ]
      },
      "properties": {
        "name": "Feltham",
        "url": "https://tfl.gov.uk/cdn/static/cms/documents/bus-route-maps/feltham-a4.pdf",
        "borough": "Hounslow"
      }
    },
    {
      "type": "Feature",
      "geometry": {
        "type": "Point",
        "coordinates": [
          -0.27466461019124755,
          51.492474201417494
        ]
      },
      "properties": {
        "name": "Gunnersbury",
        "url": "https://tfl.gov.uk/cdn/static/cms/documents/bus-route-maps/gunnersbury-a4-0322.pdf",
        "borough": "Hounslow"
      }
    },
    {
      "type": "Feature",
      "geometry": {
        "type": "Point",
        "coordinates": [
          -0.3786252887637371,
          51.43652928739532
        ]
      },
      "properties": {
        "name": "Hampton (Apex Corner)",
        "url": "https://tfl.gov.uk/cdn/static/cms/documents/bus-route-maps/hampton-apex-corner-a4.pdf",
        "borough": "Hounslow"
      }
    },
    {
      "type": "Feature",
      "geometry": {
        "type": "Point",
        "coordinates": [
          -0.39519501502255217,
          51.43252148859492
        ]
      },
      "properties": {
        "name": "Hanworth",
        "url": "https://tfl.gov.uk/cdn/static/cms/documents/bus-route-maps/hanworth-a4.pdf",
        "borough": "Hounslow"
      }
    },
    {
      "type": "Feature",
      "geometry": {
        "type": "Point",
        "coordinates": [
          -0.3888836029976306,
          51.440800649747715
        ]
      },
      "properties": {
        "name": "Hanworth Air Park Leisure Centre",
        "url": "https://tfl.gov.uk/cdn/static/cms/documents/bus-route-maps/hanworth-air-park-leisure-centre-a4.pdf",
        "borough": "Hounslow"
      }
    },
    {
      "type": "Feature",
      "geometry": {
        "type": "Point",
        "coordinates": [
          -0.38059963438035066,
          51.484835728886466
        ]
      },
      "properties": {
        "name": "Heston",
        "url": "https://tfl.gov.uk/cdn/static/cms/documents/bus-route-maps/heston-a4-1116.pdf",
        "borough": "Hounslow"
      }
    },
    {
      "type": "Feature",
      "geometry": {
        "type": "Point",
        "coordinates": [
          -0.36234630505667703,
          51.46878934461761
        ]
      },
      "properties": {
        "name": "Hounslow",
        "url": "https://tfl.gov.uk/cdn/static/cms/documents/bus-route-maps/hounslow-a4.pdf",
        "borough": "Hounslow"
      }
    },
    {
      "type": "Feature",
      "geometry": {
        "type": "Point",
        "coordinates": [
          -0.347247129121218,
          51.48174769724383
        ]
      },
      "properties": {
        "name": "Osterley",
        "url": "https://tfl.gov.uk/cdn/static/cms/documents/bus-route-maps/osterley-a4-0119.pdf",
        "borough": "Hounslow"
      }
    },
    {
      "type": "Feature",
      "geometry": {
        "type": "Point",
        "coordinates": [
          -0.3282951065836872,
          51.471877872504926
        ]
      },
      "properties": {
        "name": "West Middlesex University Hospital",
        "url": "https://tfl.gov.uk/cdn/static/cms/documents/bus-route-maps/west-middlesex-university-hospital-a4.pdf",
        "borough": "Hounslow"
      }
    },
    {
      "type": "Feature",
      "geometry": {
        "type": "Point",
        "coordinates": [
          -0.13462297280404956,
          51.566026325121236
        ]
      },
      "properties": {
        "name": "Archway",
        "url": "https://tfl.gov.uk/cdn/static/cms/documents/bus-route-maps/archway-a4.pdf",
        "borough": "Islington"
      }
    },
    {
      "type": "Feature",
      "geometry": {
        "type": "Point",
        "coordinates": [
          -0.10837994364535344,
          51.555045436212914
        ]
      },
      "properties": {
        "name": "Arsenal (Emirates Stadium)",
        "url": "https://tfl.gov.uk/cdn/static/cms/documents/bus-route-maps/arsenal-emirates-stadium-a4-0923.pdf",
        "borough": "Islington",
        "url_night": "https://tfl.gov.uk/cdn/static/cms/documents/bus-route-maps/arsenal-emirates-stadium-night-a4.pdf"
      }
    },
    {
      "type": "Feature",
      "geometry": {
        "type": "Point",
        "coordinates": [
          -0.09735087080356862,
          51.52007105002051
        ]
      },
      "properties": {
        "name": "Barbican",
        "url": "https://tfl.gov.uk/cdn/static/cms/documents/bus-route-maps/barbican-a4-010522.pdf",
        "borough": "Islington"
      }
    },
    {
      "type": "Feature",
      "geometry": {
        "type": "Point",
        "coordinates": [
          -0.11138685031477652,
          51.52344060224219
        ]
      },
      "properties": {
        "name": "Clerkenwell",
        "url": "https://tfl.gov.uk/cdn/static/cms/documents/bus-route-maps/clerkenwell-a4-170421.pdf",
        "borough": "Islington",
        "url_night": "https://tfl.gov.uk/cdn/static/cms/documents/bus-route-maps/clerkenwell-night-a4-170421.pdf "
      }
    },
    {
      "type": "Feature",
      "geometry": {
        "type": "Point",
        "coordinates": [
          -0.11511427525070227,
          51.5706462727594
        ]
      },
      "properties": {
        "name": "Crouch Hill and Stroud Green",
        "url": "https://tfl.gov.uk/cdn/static/cms/documents/bus-route-maps/crouch-hill-and-stroud-green-a4.pdf",
        "borough": "Islington"
      }
    },
    {
      "type": "Feature",
      "geometry": {
        "type": "Point",
        "coordinates": [
          -0.10626642420242192,
          51.52114452741582
        ]
      },
      "properties": {
        "name": "Farringdon",
        "url": "https://tfl.gov.uk/cdn/static/cms/documents/bus-route-maps/farringdon-a4-010522.pdf",
        "borough": "Islington"
      }
    },
    {
      "type": "Feature",
      "geometry": {
        "type": "Point",
        "coordinates": [
          -0.10570119115123727,
          51.56468194884188
        ]
      },
      "properties": {
        "name": "Finsbury Park",
        "url": "https://tfl.gov.uk/cdn/static/cms/documents/bus-route-maps/finsbury-park-a4.pdf",
        "borough": "Islington",
        "url_night": "https://tfl.gov.uk/cdn/static/cms/documents/bus-route-maps/finsbury-park-night-a4-0622.pdf "
      }
    },
    {
      "type": "Feature",
      "geometry": {
        "type": "Point",
        "coordinates": [
          -0.10280992860174312,
          51.545794902991624
        ]
      },
      "properties": {
        "name": "Highbury and Islington",
        "url": "https://tfl.gov.uk/cdn/static/cms/documents/bus-route-maps/highbury-and-islngton-a4-040223.pdf",
        "borough": "Islington",
        "url_night": "https://tfl.gov.uk/cdn/static/cms/documents/bus-route-maps/highbury-and-islington-night-a4.pdf "
      }
    },
    {
      "type": "Feature",
      "geometry": {
        "type": "Point",
        "coordinates": [
          -0.10531704490793518,
          51.53397554788041
        ]
      },
      "properties": {
        "name": "Islington (Angel)",
        "url": "https://tfl.gov.uk/cdn/static/cms/documents/bus-route-maps/islington-angel-a4-051220.pdf",
        "borough": "Islington",
        "url_night": "https://tfl.gov.uk/cdn/static/cms/documents/bus-route-maps/islington-angel-night-a4-0622.pdf "
      }
    },
    {
      "type": "Feature",
      "geometry": {
        "type": "Point",
        "coordinates": [
          -0.12238734519660832,
          51.53074697901022
        ]
      },
      "properties": {
        "name": "King's Cross",
        "url": "https://tfl.gov.uk/cdn/static/cms/documents/bus-route-maps/kings-cross-a4-300121.pdf",
        "borough": "Islington",
        "url_night": "https://tfl.gov.uk/cdn/static/cms/documents/bus-route-maps/kings-cross-night-a4-0622.pdf "
      }
    },
    {
      "type": "Feature",
      "geometry": {
        "type": "Point",
        "coordinates": [
          -0.08727797912146393,
          51.52049379038287
        ]
      },
      "properties": {
        "name": "Moorgate",
        "url": "https://tfl.gov.uk/cdn/static/cms/documents/bus-route-maps/moorgate-a4.pdf",
        "borough": "Islington"
      }
    },
    {
      "type": "Feature",
      "geometry": {
        "type": "Point",
        "coordinates": [
          -0.08813334422816892,
          51.52686145205827
        ]
      },
      "properties": {
        "name": "Old Street and Moorfields Eye Hospital",
        "url": "https://tfl.gov.uk/cdn/static/cms/documents/bus-route-maps/old-street-and-moorfields-eye-hospital-a4-0923.pdf",
        "borough": "Islington",
        "url_night": "https://tfl.gov.uk/cdn/static/cms/documents/bus-route-maps/old-street-and-moorfields-eye-hosp-night-a4.pdf "
      }
    },
    {
      "type": "Feature",
      "geometry": {
        "type": "Point",
        "coordinates": [
          -0.18777212791602915,
          51.513775812864196
        ]
      },
      "properties": {
        "name": "Bayswater (Queensway)",
        "url": "https://tfl.gov.uk/cdn/static/cms/documents/bus-route-maps/bayswater-queensway-a4.pdf",
        "borough": "Kensington and Chelsea",
        "url_night": "https://tfl.gov.uk/cdn/static/cms/documents/bus-route-maps/bayswater-queensway-night-a4-290423.pdf"
      }
    },
    {
      "type": "Feature",
      "geometry": {
        "type": "Point",
        "coordinates": [
          -0.18427865570499094,
          51.48411453617106
        ]
      },
      "properties": {
        "name": "Chelsea and Westminster Hospital",
        "url": "https://tfl.gov.uk/cdn/static/cms/documents/bus-route-maps/chelsea-and-westminster-hospital-a4.pdf",
        "borough": "Kensington and Chelsea"
      }
    },
    {
      "type": "Feature",
      "geometry": {
        "type": "Point",
        "coordinates": [
          -0.14978911600313724,
          51.48442464705307
        ]
      },
      "properties": {
        "name": "Chelsea Bridge and The Lister Hospital",
        "url": "https://tfl.gov.uk/cdn/static/cms/documents/bus-route-maps/chelsea-bridge-and-lister-hospital-a4.pdf",
        "borough": "Kensington and Chelsea"
      }
    },
    {
      "type": "Feature",
      "geometry": {
        "type": "Point",
        "coordinates": [
          -0.19437787406453425,
          51.49126097257258
        ]
      },
      "properties": {
        "name": "Earl's Court",
        "url": "https://tfl.gov.uk/cdn/static/cms/documents/bus-route-maps/earls-court-a4-0318.pdf",
        "borough": "Kensington and Chelsea"
      }
    },
    {
      "type": "Feature",
      "geometry": {
        "type": "Point",
        "coordinates": [
          -0.1819373573805348,
          51.493394143855745
        ]
      },
      "properties": {
        "name": "Gloucester Road",
        "url": "https://tfl.gov.uk/cdn/static/cms/documents/bus-route-maps/gloucester-road-a4-0716.pdf",
        "borough": "Kensington and Chelsea"
      }
    },
    {
      "type": "Feature",
      "geometry": {
        "type": "Point",
        "coordinates": [
          -0.20430257314302194,
          51.50752807486283
        ]
      },
      "properties": {
        "name": "Holland Park",
        "url": "https://tfl.gov.uk/cdn/static/cms/documents/bus-route-maps/holland-park-a4-1017.pdf",
        "borough": "Kensington and Chelsea"
      }
    },
    {
      "type": "Feature",
      "geometry": {
        "type": "Point",
        "coordinates": [
          -0.1973389688889088,
          51.4994910391704
        ]
      },
      "properties": {
        "name": "Kensington High Street",
        "url": "https://tfl.gov.uk/cdn/static/cms/documents/bus-route-maps/kensington-high-street-a4-290423.pdf",
        "borough": "Kensington and Chelsea",
        "url_night": "https://tfl.gov.uk/cdn/static/cms/documents/bus-route-maps/kensington-high-street-night-a4-290423.pdf "
      }
    },
    {
      "type": "Feature",
      "geometry": {
        "type": "Point",
        "coordinates": [
          -0.20687064984062506,
          51.49627096826803
        ]
      },
      "properties": {
        "name": "Kensington Olympia",
        "url": "https://tfl.gov.uk/cdn/static/cms/documents/bus-route-maps/kensington-olympia-a4-290423.pdf",
        "borough": "Kensington and Chelsea"
      }
    },
    {
      "type": "Feature",
      "geometry": {
        "type": "Point",
        "coordinates": [
          -0.16331445608870349,
          51.499833254513014
        ]
      },
      "properties": {
        "name": "Knightsbridge",
        "url": "https://tfl.gov.uk/cdn/static/cms/documents/bus-route-maps/knightsbridge-a4.pdf",
        "borough": "Kensington and Chelsea",
        "url_night": "https://tfl.gov.uk/cdn/static/cms/documents/bus-route-maps/knightsbridge-night-a4-290423.pdf "
      }
    },
    {
      "type": "Feature",
      "geometry": {
        "type": "Point",
        "coordinates": [
          -0.1774058,
          51.501007
        ]
      },