{"type":"FeatureCollection", "features": [
{"type":"Feature","geometry":{"type":"Point","coordinates":[-0.06800687734953913,51.412808189501725]},"properties":{"name":"Anerley station","url":"https://tfl.gov.uk/cdn/static/cms/documents/bus-route-maps/anerley-station-a4-150717.pdf","borough":"Bromley"}},
{"type":"Feature","geometry":{"type":"Point","coordinates":[-0.014358672398076455,51.41876643328293]},"properties":{"name":"Beckenham East","url":"https://tfl.gov.uk/cdn/static/cms/documents/bus-route-maps/beckenham-east-a4.pdf","borough":"Bromley"}},
{"type":"Feature","geometry":{"type":"Point","coordinates":[0.03432609589811311,51.310716366116544]},"properties":{"name":"Biggin Hill","url":"https://tfl.gov.uk/cdn/static/cms/documents/bus-route-maps/biggin-hill-a4.pdf","borough":"Bromley"}},
{"type":"Feature","geometry":{"type":"Point","coordinates":[0.02283109467646761,51.32766154327361]},"properties":{"name":"Biggin Hill Airport","url":"https://tfl.gov.uk/cdn/static/cms/documents/bus-route-maps/biggin-hill-airport-a4.pdf","borough":"Bromley"}},
{"type":"Feature","geometry":{"type":"Point","coordinates":[0.015558562537067257,51.38826070756482]},"properties":{"name":"Bromley (Hayesford Park)","url":"https://tfl.gov.uk/cdn/static/cms/documents/bus-route-maps/bromley-hayesford-park-a4.pdf","borough":"Bromley"}},
{"type":"Feature","geometry":{"type":"Point","coordinates":[0.013951379856514878,51.40774400119547]},"properties":{"name":"Bromley North and Market Square","url":"https://tfl.gov.uk/cdn/static/cms/documents/bus-route-maps/bromley-north-and-market-square-a4-240224.pdf","borough":"Bromley"}},
{"type":"Feature","geometry":{"type":"Point","coordinates":[0.07418747795049892,51.412464447726435]},"properties":{"name":"Chislehurst War Memorial","url":"https://tfl.gov.uk/cdn/static/cms/documents/bus-route-maps/chislehurst-war-memorial-a4.pdf","borough":"Bromley"}},
{"type":"Feature","geometry":{"type":"Point","coordinates":[-0.0013956114346471574,51.37112216126725]},"properties":{"name":"Coney Hall","url":"https://tfl.gov.uk/cdn/static/cms/documents/bus-route-maps/coney-hall-a4.pdf","borough":"Bromley"}},
{"type":"Feature","geometry":{"type":"Point","coordinates":[0.07615621025710255,51.373320483676224]},"properties":{"name":"Crofton (Orpington)","url":"https://tfl.gov.uk/cdn/static/cms/documents/bus-route-maps/crofton-orpington-a4.pdf","borough":"Bromley"}},
{"type":"Feature","geometry":{"type":"Point","coordinates":[-0.07851184420500766,51.419960790878825]},"properties":{"name":"Crystal Palace","url":"https://tfl.gov.uk/cdn/static/cms/documents/bus-route-maps/crystal-palace-a4-290423.pdf","borough":"Bromley"}},
{"type":"Feature","geometry":{"type":"Point","coordinates":[-0.027191687682650713,51.39027990936104]},"properties":{"name":"Eden Park","url":"https://tfl.gov.uk/cdn/static/cms/documents/bus-route-maps/eden-park-a4-030224.pdf","borough":"Bromley"}},
{"type":"Feature","geometry":{"type":"Point","coordinates":[-0.044068668694096313,51.398416219791365]},"properties":{"name":"Elmers End","url":"https://tfl.gov.uk/cdn/static/cms/documents/bus-route-maps/elmers-end-a4.pdf","borough":"Bromley"}},
{"type":"Feature","geometry":{"type":"Point","coordinates":[-0.027764144575557873,51.41578932583777]},"properties":{"name":"New Beckenham","url":"https://tfl.gov.uk/cdn/static/cms/documents/bus-route-maps/new-beckenham-a4.pdf","borough":"Bromley"}},
{"type":"Feature","geometry":{"type":"Point","coordinates":[0.09756889487080073,51.37319645231587]},"properties":{"name":"Orpington","url":"https://tfl.gov.uk/cdn/static/cms/documents/bus-route-maps/orpington-a4.pdf","borough":"Bromley"}},
{"type":"Feature","geometry":{"type":"Point","coordinates":[0.10625498129267974,51.38176487075168]},"properties":{"name":"Orpington High Street","url":"https://tfl.gov.uk/cdn/static/cms/documents/bus-route-maps/orpington-high-st-a4-010417.pdf","borough":"Bromley"}},
{"type":"Feature","geometry":{"type":"Point","coordinates":[0.09251699925905647,51.36397773625689]},"properties":{"name":"Orpington Hospital","url":"https://tfl.gov.uk/cdn/static/cms/documents/bus-route-maps/orpington-hospital-a4-010417.pdf","borough":"Bromley"}},
{"type":"Feature","geometry":{"type":"Point","coordinates":[-0.018111601372264776,51.3991444389705]},"properties":{"name":"Park Langley","url":"https://tfl.gov.uk/cdn/static/cms/documents/bus-route-maps/park-langley-a4-030224.pdf","borough":"Bromley"}},
{"type":"Feature","geometry":{"type":"Point","coordinates":[0.053188089713630225,51.366153533584495]},"properties":{"name":"Princess Royal University Hospital","url":"https://tfl.gov.uk/cdn/static/cms/documents/bus-route-maps/princess-royal-university-hospital-a4.pdf","borough":"Bromley"}},
{"type":"Feature","geometry":{"type":"Point","coordinates":[0.11604494169385934,51.376018876323]},"properties":{"name":"Ramsden Estate","url":"https://tfl.gov.uk/cdn/static/cms/documents/bus-route-maps/ramsden-estate.pdf","borough":"Bromley"}},
{"type":"Feature","geometry":{"type":"Point","coordinates":[-0.00022225309614527994,51.40652530110911]},"properties":{"name":"Shortlands","url":"https://tfl.gov.uk/cdn/static/cms/documents/bus-route-maps/shortlands-0816.pdf","borough":"Bromley"}},
{"type":"Feature","geometry":{"type":"Point","coordinates":[-0.024198874960940316,51.37764878983332]},"properties":{"name":"West Wickham","url":"https://tfl.gov.uk/cdn/static/cms/documents/bus-route-maps/west-wickham-a4-030224.pdf","borough":"Bromley"}}
]}
