{"type":"FeatureCollection", "features": [
{"type":"Feature","geometry":{"type":"Point","coordinates":[-0.14274204974970156,51.53969194799053]},"properties":{"name":"Camden Town","url":"https://tfl.gov.uk/cdn/static/cms/documents/bus-route-maps/camden-town-a4-300923.pdf","borough":"Camden","url_night":"https://tfl.gov.uk/cdn/static/cms/documents/bus-route-maps/camden-town-night-a4-100721.pdf"}},
{"type":"Feature","geometry":{"type":"Point","coordinates":[-0.15258334693953907,51.54385267696535]},"properties":{"name":"Chalk Farm","url":"https://tfl.gov.uk/cdn/static/cms/documents/bus-route-maps/chalk-farm-a4-300923.pdf","borough":"Camden"}},
{"type":"Feature","geometry":{"type":"Point","coordinates":[-0.11138618361785291,51.52344442996503]},"properties":{"name":"Clerkenwell","url":"https://tfl.gov.uk/cdn/static/cms/documents/bus-route-maps/clerkenwell-a4-170421.pdf","borough":"Camden","url_night":"https://tfl.gov.uk/cdn/static/cms/documents/bus-route-maps/clerkenwell-night-a4-170421.pdf "}},
{"type":"Feature","geometry":{"type":"Point","coordinates":[-0.11757475695182806,51.52601263396908]},"properties":{"name":"Eastman Dental Hospital (Clerkenwell)","url":"https://tfl.gov.uk/cdn/static/cms/documents/bus-route-maps/eastman-dental-hospital-a4-300121.pdf","borough":"Camden"}},
{"type":"Feature","geometry":{"type":"Point","coordinates":[-0.13204192682699983,51.52748056333413]},"properties":{"name":"Euston","url":"https://tfl.gov.uk/cdn/static/cms/documents/bus-route-maps/euston-a4-300923.pdf","borough":"Camden","url_night":"https://tfl.gov.uk/cdn/static/cms/documents/bus-route-maps/euston-night-a4-290423.pdf "}},
{"type":"Feature","geometry":{"type":"Point","coordinates":[-0.13815069665400254,51.5250897183873]},"properties":{"name":"Euston Square and Warren Street","url":"https://tfl.gov.uk/cdn/static/cms/documents/bus-route-maps/euston-square-and-warren-street-a4-100721.pdf","borough":"Camden","url_night":"https://tfl.gov.uk/cdn/static/cms/documents/bus-route-maps/euston-square-and-warren-street-night-a4-100721.pdf "}},
{"type":"Feature","geometry":{"type":"Point","coordinates":[-0.10627340301611135,51.52114226996065]},"properties":{"name":"Farringdon","url":"https://tfl.gov.uk/cdn/static/cms/documents/bus-route-maps/farringdon-a4-010522.pdf","borough":"Camden"}},
{"type":"Feature","geometry":{"type":"Point","coordinates":[-0.18105510276996495,51.548535795659916]},"properties":{"name":"Finchley Road","url":"https://tfl.gov.uk/cdn/static/cms/documents/bus-route-maps/finchley-road-a4-280821.pdf","borough":"Camden"}},
{"type":"Feature","geometry":{"type":"Point","coordinates":[-0.1948260885924204,51.5533201384415]},"properties":{"name":"Fortune Green","url":"https://tfl.gov.uk/cdn/static/cms/documents/bus-route-maps/fortune-green-a4-010417.pdf","borough":"Camden"}},
{"type":"Feature","geometry":{"type":"Point","coordinates":[-0.1343573,51.5205978]},"properties":{"name":"Goodge Street","url":"https://tfl.gov.uk/cdn/static/cms/documents/bus-route-maps/goodge-street-a4-0622.pdf","borough":"Camden","url_night":"https://tfl.gov.uk/cdn/static/cms/documents/bus-route-maps/goodge-street-night-a4-0622.pdf "}},
{"type":"Feature","geometry":{"type":"Point","coordinates":[-0.16499148410704956,51.55417581656208]},"properties":{"name":"Hampstead Heath and Royal Free Hospital","url":"https://tfl.gov.uk/cdn/static/cms/documents/bus-route-maps/hampstead-heath-and-royal-free-hospital-a4-300923.pdf","borough":"Camden"}},
{"type":"Feature","geometry":{"type":"Point","coordinates":[-0.12039791729180847,51.517621496687184]},"properties":{"name":"Holborn","url":"https://tfl.gov.uk/cdn/static/cms/documents/bus-route-maps/holborn-a4.pdf","borough":"Camden"}},
{"type":"Feature","geometry":{"type":"Point","coordinates":[-0.12010293804527133,51.523251713284495]},"properties":{"name":"Holborn  - Night Buses","url":"https://tfl.gov.uk/cdn/static/cms/documents/bus-route-maps/holborn-night-a4-300923.pdf","borough":"Camden"}},
{"type":"Feature","geometry":{"type":"Point","coordinates":[-0.12240572937341881,51.53075711236763]},"properties":{"name":"King's Cross","url":"https://tfl.gov.uk/cdn/static/cms/documents/bus-route-maps/kings-cross-a4-300121.pdf","borough":"Camden","url_night":"https://tfl.gov.uk/cdn/static/cms/documents/bus-route-maps/kings-cross-night-a4-0622.pdf "}},
{"type":"Feature","geometry":{"type":"Point","coordinates":[-0.1610689296919855,51.53927043939339]},"properties":{"name":"London Zoo and Primrose Hill","url":"https://tfl.gov.uk/cdn/static/cms/documents/bus-route-maps/london-zoo-and-primrose-hill-a4-0518.pdf","borough":"Camden"}},
{"type":"Feature","geometry":{"type":"Point","coordinates":[-0.12608085495177804,51.52168288596798]},"properties":{"name":"Russell Square","url":"https://tfl.gov.uk/cdn/static/cms/documents/bus-route-maps/russell-square-a4-300923.pdf","borough":"Camden"}},
{"type":"Feature","geometry":{"type":"Point","coordinates":[-0.13037450631131048,51.51642113749767]},"properties":{"name":"Tottenham Court Road","url":"https://tfl.gov.uk/cdn/static/cms/documents/bus-route-maps/tottenham-court-road-a4-300923.pdf","borough":"Camden","url_night":"https://tfl.gov.uk/cdn/static/cms/documents/bus-route-maps/tottenham-court-road-night-a4-300923.pdf "}}
]}
