{"type":"FeatureCollection", "features": [
{"type":"Feature","geometry":{"type":"Point","coordinates":[-0.07582211261552727,51.51425522792501]},"properties":{"name":"Aldgate and Fenchurch Street","url":"https://tfl.gov.uk/cdn/static/cms/documents/bus-route-maps/aldgate-and-fenchurch-street-a4.pdf","borough":"City of London","url_night":"https://tfl.gov.uk/cdn/static/cms/documents/bus-route-maps/aldgate-and-fenchurch-street-night-a4-310723.pdf"}},
{"type":"Feature","geometry":{"type":"Point","coordinates":[-0.06712635671780129,51.51490010141977]},"properties":{"name":"Aldgate East","url":"https://tfl.gov.uk/cdn/static/cms/documents/bus-route-maps/aldgate-east-a4-0622.pdf","borough":"City of London","url_night":"https://tfl.gov.uk/cdn/static/cms/documents/bus-route-maps/aldgate-east-night-a4-0622.pdf "}},
{"type":"Feature","geometry":{"type":"Point","coordinates":[-0.08894901520235629,51.51340275331103]},"properties":{"name":"Bank","url":"https://tfl.gov.uk/cdn/static/cms/documents/bus-route-maps/bank-a4.pdf","borough":"City of London"}},
{"type":"Feature","geometry":{"type":"Point","coordinates":[-0.09735612840753381,51.52006886137993]},"properties":{"name":"Barbican","url":"https://tfl.gov.uk/cdn/static/cms/documents/bus-route-maps/barbican-a4-010522.pdf","borough":"City of London"}},
{"type":"Feature","geometry":{"type":"Point","coordinates":[-0.10415198429504909,51.51185459703611]},"properties":{"name":"Blackfriars","url":"https://tfl.gov.uk/cdn/static/cms/documents/bus-route-maps/blackfriars-a4.pdf","borough":"City of London"}},
{"type":"Feature","geometry":{"type":"Point","coordinates":[-0.08777785329601445,51.51208398960942]},"properties":{"name":"City of London - Night Buses","url":"https://tfl.gov.uk/cdn/static/cms/documents/bus-route-maps/city-of-london-night-a4.pdf","borough":"City of London"}},
{"type":"Feature","geometry":{"type":"Point","coordinates":[-0.10358408177745428,51.51534014473311]},"properties":{"name":"City Thameslink (and Barts Hospital)","url":"https://tfl.gov.uk/cdn/static/cms/documents/bus-route-maps/city-thameslink-a4.pdf","borough":"City of London","url_night":"https://tfl.gov.uk/cdn/static/cms/documents/bus-route-maps/city-thameslink-night-a4.pdf "}},
{"type":"Feature","geometry":{"type":"Point","coordinates":[-0.0818980822691416,51.51731098087712]},"properties":{"name":"Liverpool Street","url":"https://tfl.gov.uk/cdn/static/cms/documents/bus-route-maps/liverpool-street-a4-170723.pdf","borough":"City of London","url_night":"https://tfl.gov.uk/cdn/static/cms/documents/bus-route-maps/liverpool-street-night-a4-170723.pdf "}},
{"type":"Feature","geometry":{"type":"Point","coordinates":[-0.08660425213577057,51.51087595218072]},"properties":{"name":"Monument and Cannon Street","url":"https://tfl.gov.uk/cdn/static/cms/documents/bus-route-maps/monument-and-cannon-street-a4.pdf","borough":"City of London"}},
{"type":"Feature","geometry":{"type":"Point","coordinates":[-0.08727767292060298,51.520495329554905]},"properties":{"name":"Moorgate","url":"https://tfl.gov.uk/cdn/static/cms/documents/bus-route-maps/moorgate-a4.pdf","borough":"City of London"}},
{"type":"Feature","geometry":{"type":"Point","coordinates":[-0.09686233508431034,51.51460898994821]},"properties":{"name":"St Pauls and Mansion House","url":"https://tfl.gov.uk/cdn/static/cms/documents/bus-route-maps/st-pauls-and-mansion-house-a4.pdf","borough":"City of London","url_night":"https://tfl.gov.uk/cdn/static/cms/documents/bus-route-maps/st-pauls-and-mansion-house-night-a4.pdf "}},
{"type":"Feature","geometry":{"type":"Point","coordinates":[-0.07679498598486839,51.50948979453377]},"properties":{"name":"Tower of London","url":"https://tfl.gov.uk/cdn/static/cms/documents/bus-route-maps/tower-of-london-a4.pdf","borough":"City of London"}}
]}
