{"type":"FeatureCollection", "features": [
{"type":"Feature","geometry":{"type":"Point","coordinates":[-0.2192915679471392,51.483532681582204]},"properties":{"name":"Charing Cross Hospital (Hammersmith)","url":"https://tfl.gov.uk/cdn/static/cms/documents/bus-route-maps/charing-cross-hospital-a4.pdf","borough":"Hammersmith & Fulham","url_night":"https://tfl.gov.uk/cdn/static/cms/documents/bus-route-maps/charing-cross-hospital-night-a4-290423.pdf "}},
{"type":"Feature","geometry":{"type":"Point","coordinates":[-0.23733195726937875,51.532200221693984]},"properties":{"name":"College Park and Scrubs Lane","url":"https://tfl.gov.uk/cdn/static/cms/documents/bus-route-maps/college-park-and-scrubs-lane-a4.pdf","borough":"Hammersmith & Fulham","url_night":null}},
{"type":"Feature","geometry":{"type":"Point","coordinates":[-0.21113515808375202,51.47161910309352]},"properties":{"name":"Fulham and Putney Bridge","url":"https://tfl.gov.uk/cdn/static/cms/documents/bus-route-maps/fulham-and-putney-bridge-a4.pdf","borough":"Hammersmith & Fulham","url_night":"https://tfl.gov.uk/cdn/static/cms/documents/bus-route-maps/fulham-and-putney-bridge-night-a4-0622.pdf "}},
{"type":"Feature","geometry":{"type":"Point","coordinates":[-0.1956236167885899,51.480007901981146]},"properties":{"name":"Fulham Broadway","url":"https://tfl.gov.uk/cdn/static/cms/documents/bus-route-maps/fulham-broadway-a4.pdf","borough":"Hammersmith & Fulham","url_night":null}},
{"type":"Feature","geometry":{"type":"Point","coordinates":[-0.2236401,51.4920377]},"properties":{"name":"Hammersmith","url":"https://tfl.gov.uk/cdn/static/cms/documents/bus-route-maps/hammersmith-a4.pdf","borough":"Hammersmith & Fulham","url_night":"https://tfl.gov.uk/cdn/static/cms/documents/bus-route-maps/hammersmith-night-a4-090923.pdf"}},
{"type":"Feature","geometry":{"type":"Point","coordinates":[-0.20583786064708923,51.496658302371]},"properties":{"name":"Kensington Olympia","url":"https://tfl.gov.uk/cdn/static/cms/documents/bus-route-maps/kensington-olympia-a4-290423.pdf","borough":"Hammersmith & Fulham","url_night":null}},
{"type":"Feature","geometry":{"type":"Point","coordinates":[-0.23454905827581393,51.5064775641827]},"properties":{"name":"QPR Loftus Road Stadium","url":"https://tfl.gov.uk/cdn/static/cms/documents/bus-route-maps/qpr-loftus-road-stadium-a4-150723.pdf","borough":"Hammersmith & Fulham","url_night":null}},
{"type":"Feature","geometry":{"type":"Point","coordinates":[-0.2225475876051578,51.50417838868107]},"properties":{"name":"Shepherd's Bush","url":"https://tfl.gov.uk/cdn/static/cms/documents/bus-route-maps/shepherds-bush-a4-101223.pdf","borough":"Hammersmith & Fulham","url_night":null}},
{"type":"Feature","geometry":{"type":"Point","coordinates":[-0.22453463700922238,51.50950771552481]},"properties":{"name":"White City","url":"https://tfl.gov.uk/cdn/static/cms/documents/bus-route-maps/white-city-a4-101223.pdf","borough":"Hammersmith & Fulham","url_night":null}},
{"type":"Feature","geometry":{"type":"Point","coordinates":[-0.23397025903645438,51.51630417886401]},"properties":{"name":"Wormwood Scrubs and Hammersmith Hospital","url":"https://tfl.gov.uk/cdn/static/cms/documents/bus-route-maps/wormwood-scrubs-and-hammersmith-hospital-a4-270523.pdf","borough":"Hammersmith & Fulham","url_night":null}}
]}