{"type":"FeatureCollection", "features": [
{"type":"Feature","geometry":{"type":"Point","coordinates":[0.21027520854820797,51.560080145906504]},"properties":{"name":"Abbs Cross","url":"https://tfl.gov.uk/cdn/static/cms/documents/bus-route-maps/abbs-cross-a4.pdf","borough":"Havering"}},
{"type":"Feature","geometry":{"type":"Point","coordinates":[0.20793605873370563,51.5782026711761]},"properties":{"name":"Ardleigh Green (Gidea Park)","url":"https://tfl.gov.uk/cdn/static/cms/documents/bus-route-maps/ardleigh-green-gidea-park-a4-010522.pdf","borough":"Havering"}},
{"type":"Feature","geometry":{"type":"Point","coordinates":[0.13023592377547896,51.570753119366785]},"properties":{"name":"Chadwell Heath","url":"https://tfl.gov.uk/cdn/static/cms/documents/bus-route-maps/chadwell-heath-a4-010522.pdf","borough":"Havering"}},
{"type":"Feature","geometry":{"type":"Point","coordinates":[0.17762274113210347,51.59988649689118]},"properties":{"name":"Chase Cross (Romford)","url":"https://tfl.gov.uk/cdn/static/cms/documents/bus-route-maps/chase-cross-romford-a4.pdf","borough":"Havering"}},
{"type":"Feature","geometry":{"type":"Point","coordinates":[0.16336620108495473,51.59939389385981]},"properties":{"name":"Collier Row","url":"https://tfl.gov.uk/cdn/static/cms/documents/bus-route-maps/collier-row-a4-0417.pdf","borough":"Havering"}},
{"type":"Feature","geometry":{"type":"Point","coordinates":[0.19996814622520126,51.54848682267637]},"properties":{"name":"Elm Park","url":"https://tfl.gov.uk/cdn/static/cms/documents/bus-route-maps/elm-park-a4-0217.pdf","borough":"Havering"}},
{"type":"Feature","geometry":{"type":"Point","coordinates":[0.21876107764266264,51.57223995335425]},"properties":{"name":"Emerson Park","url":"https://tfl.gov.uk/cdn/static/cms/documents/bus-route-maps/emerson-park-a4.pdf","borough":"Havering"}},
{"type":"Feature","geometry":{"type":"Point","coordinates":[0.20989578095729491,51.58441719972678]},"properties":{"name":"Gidea Park","url":"https://tfl.gov.uk/cdn/static/cms/documents/bus-route-maps/gidea-park-a4.pdf","borough":"Havering"}},
{"type":"Feature","geometry":{"type":"Point","coordinates":[0.2327716952230794,51.593191815687305]},"properties":{"name":"Harold Wood","url":"https://tfl.gov.uk/cdn/static/cms/documents/bus-route-maps/haroldwood-a4.pdf","borough":"Havering"}},
{"type":"Feature","geometry":{"type":"Point","coordinates":[0.22050093432166873,51.55866246524688]},"properties":{"name":"Hornchurch","url":"https://tfl.gov.uk/cdn/static/cms/documents/bus-route-maps/hornchurch-a4.pdf","borough":"Havering"}},
{"type":"Feature","geometry":{"type":"Point","coordinates":[0.2010937144980743,51.53892033148793]},"properties":{"name":"Mungo Park and Airfield Estate","url":"https://tfl.gov.uk/cdn/static/cms/documents/bus-route-maps/mungo-park-and-airfield-estate-a4.pdf","borough":"Havering"}},
{"type":"Feature","geometry":{"type":"Point","coordinates":[0.18145693273436658,51.568642934600014]},"properties":{"name":"Queen's Hospital (Romford)","url":"https://tfl.gov.uk/cdn/static/cms/documents/bus-route-maps/queens-hospital-romford-a4-010622.pdf","borough":"Havering"}},
{"type":"Feature","geometry":{"type":"Point","coordinates":[0.18939029691445886,51.51972545615235]},"properties":{"name":"Rainham","url":"https://tfl.gov.uk/cdn/static/cms/documents/bus-route-maps/rainham-a4.pdf","borough":"Havering"}},
{"type":"Feature","geometry":{"type":"Point","coordinates":[0.17682478662386744,51.52392376286703]},"properties":{"name":"Rainham (Orchard Village)","url":"https://tfl.gov.uk/cdn/static/cms/documents/bus-route-maps/rainham-orchard-village-a4.pdf","borough":"Havering"}},
{"type":"Feature","geometry":{"type":"Point","coordinates":[0.18908778160387357,51.56182559763751]},"properties":{"name":"Romford (Roneo Corner)","url":"https://tfl.gov.uk/cdn/static/cms/documents/bus-route-maps/romford-roneo-corner-a4-300917.pdf","borough":"Havering"}},
{"type":"Feature","geometry":{"type":"Point","coordinates":[0.17727821005353053,51.57646907069168]},"properties":{"name":"Romford Brewery and Stadium","url":"https://tfl.gov.uk/cdn/static/cms/documents/bus-route-maps/romford-brewery-and-stadium-a4.pdf","borough":"Havering"}},
{"type":"Feature","geometry":{"type":"Point","coordinates":[0.18880174303279654,51.57169197173839]},"properties":{"name":"Romford South","url":"https://tfl.gov.uk/cdn/static/cms/documents/bus-route-maps/romford-south-a4-300917.pdf","borough":"Havering"}},
{"type":"Feature","geometry":{"type":"Point","coordinates":[0.18356049306805966,51.57495402246876]},"properties":{"name":"Romford station","url":"https://tfl.gov.uk/cdn/static/cms/documents/bus-route-maps/romford-station-a4.pdf","borough":"Havering"}},
{"type":"Feature","geometry":{"type":"Point","coordinates":[0.17238204544075533,51.58569926837651]},"properties":{"name":"Romford, North Street","url":"https://tfl.gov.uk/cdn/static/cms/documents/bus-route-maps/romford-north-street-a4-0517.pdf","borough":"Havering"}},
{"type":"Feature","geometry":{"type":"Point","coordinates":[0.17620541374062731,51.565500502326934]},"properties":{"name":"Rush Green (Romford)","url":"https://tfl.gov.uk/cdn/static/cms/documents/bus-route-maps/rush-green-romford-a4.pdf","borough":"Havering"}},
{"type":"Feature","geometry":{"type":"Point","coordinates":[0.18342694175328708,51.533042891283955]},"properties":{"name":"South Hornchurch","url":"https://tfl.gov.uk/cdn/static/cms/documents/bus-route-maps/south-hornchurch-a4.pdf","borough":"Havering"}},
{"type":"Feature","geometry":{"type":"Point","coordinates":[0.2180961122840756,51.54983630623191]},"properties":{"name":"St George's Hospital (Hornchurch)","url":"https://tfl.gov.uk/cdn/static/cms/documents/bus-route-maps/st-georges-hospital-hornchurch.pdf","borough":"Havering"}},
{"type":"Feature","geometry":{"type":"Point","coordinates":[0.25003483907023843,51.5581778375866]},"properties":{"name":"Upminster","url":"https://tfl.gov.uk/cdn/static/cms/documents/bus-route-maps/upminster-a4.pdf","borough":"Havering"}},
{"type":"Feature","geometry":{"type":"Point","coordinates":[0.23131038170835413,51.559855983186175]},"properties":{"name":"Upminster Bridge","url":"https://tfl.gov.uk/cdn/static/cms/documents/bus-route-maps/upminster-bridge-190315.pdf","borough":"Havering"}}
]}
