{"type":"FeatureCollection", "features": [
{"type":"Feature","geometry":{"type":"Point","coordinates":[-0.43667505673118884,51.45170322793163]},"properties":{"name":"Bedfont","url":"https://tfl.gov.uk/cdn/static/cms/documents/bus-route-maps/bedfont-a4.pdf","borough":"Hounslow"}},
{"type":"Feature","geometry":{"type":"Point","coordinates":[-0.30800631969667236,51.48818438108196]},"properties":{"name":"Brentford station (Griffin Park)","url":"https://tfl.gov.uk/cdn/static/cms/documents/bus-route-maps/brentford-station-griffin-park-a4-201018.pdf","borough":"Hounslow"}},
{"type":"Feature","geometry":{"type":"Point","coordinates":[-0.3976009711691078,51.49737941604739]},"properties":{"name":"Bulls Bridge","url":"https://tfl.gov.uk/cdn/static/cms/documents/bus-route-maps/bulls-bridge-a4-0817.pdf","borough":"Hounslow"}},
{"type":"Feature","geometry":{"type":"Point","coordinates":[-0.39372660646069646,51.484402989238525]},"properties":{"name":"Cranford North","url":"https://tfl.gov.uk/cdn/static/cms/documents/bus-route-maps/cranford-north-a4-0418.pdf","borough":"Hounslow"}},
{"type":"Feature","geometry":{"type":"Point","coordinates":[-0.41116963226776543,51.44412721523456]},"properties":{"name":"Feltham","url":"https://tfl.gov.uk/cdn/static/cms/documents/bus-route-maps/feltham-a4.pdf","borough":"Hounslow"}},
{"type":"Feature","geometry":{"type":"Point","coordinates":[-0.27466461019124755,51.492474201417494]},"properties":{"name":"Gunnersbury","url":"https://tfl.gov.uk/cdn/static/cms/documents/bus-route-maps/gunnersbury-a4-0322.pdf","borough":"Hounslow"}},
{"type":"Feature","geometry":{"type":"Point","coordinates":[-0.3786252887637371,51.43652928739532]},"properties":{"name":"Hampton (Apex Corner)","url":"https://tfl.gov.uk/cdn/static/cms/documents/bus-route-maps/hampton-apex-corner-a4.pdf","borough":"Hounslow"}},
{"type":"Feature","geometry":{"type":"Point","coordinates":[-0.39519501502255217,51.43252148859492]},"properties":{"name":"Hanworth","url":"https://tfl.gov.uk/cdn/static/cms/documents/bus-route-maps/hanworth-a4.pdf","borough":"Hounslow"}},
{"type":"Feature","geometry":{"type":"Point","coordinates":[-0.3888836029976306,51.440800649747715]},"properties":{"name":"Hanworth Air Park Leisure Centre","url":"https://tfl.gov.uk/cdn/static/cms/documents/bus-route-maps/hanworth-air-park-leisure-centre-a4.pdf","borough":"Hounslow"}},
{"type":"Feature","geometry":{"type":"Point","coordinates":[-0.38059963438035066,51.484835728886466]},"properties":{"name":"Heston","url":"https://tfl.gov.uk/cdn/static/cms/documents/bus-route-maps/heston-a4-1116.pdf","borough":"Hounslow"}},
{"type":"Feature","geometry":{"type":"Point","coordinates":[-0.36234630505667703,51.46878934461761]},"properties":{"name":"Hounslow","url":"https://tfl.gov.uk/cdn/static/cms/documents/bus-route-maps/hounslow-a4.pdf","borough":"Hounslow"}},
{"type":"Feature","geometry":{"type":"Point","coordinates":[-0.347247129121218,51.48174769724383]},"properties":{"name":"Osterley","url":"https://tfl.gov.uk/cdn/static/cms/documents/bus-route-maps/osterley-a4-0119.pdf","borough":"Hounslow"}},
{"type":"Feature","geometry":{"type":"Point","coordinates":[-0.3282951065836872,51.471877872504926]},"properties":{"name":"West Middlesex University Hospital","url":"https://tfl.gov.uk/cdn/static/cms/documents/bus-route-maps/west-middlesex-university-hospital-a4.pdf","borough":"Hounslow"}}
]}