{"type":"FeatureCollection", "features": [
{"type":"Feature","geometry":{"type":"Point","coordinates":[-0.13462297280404956,51.566026325121236]},"properties":{"name":"Archway","url":"https://tfl.gov.uk/cdn/static/cms/documents/bus-route-maps/archway-a4.pdf","borough":"Islington","url_night":null}},
{"type":"Feature","geometry":{"type":"Point","coordinates":[-0.10837994364535344,51.555045436212914]},"properties":{"name":"Arsenal (Emirates Stadium)","url":"https://tfl.gov.uk/cdn/static/cms/documents/bus-route-maps/arsenal-emirates-stadium-a4-0923.pdf","borough":"Islington","url_night":"https://tfl.gov.uk/cdn/static/cms/documents/bus-route-maps/arsenal-emirates-stadium-night-a4.pdf"}},
{"type":"Feature","geometry":{"type":"Point","coordinates":[-0.09735087080356862,51.52007105002051]},"properties":{"name":"Barbican","url":"https://tfl.gov.uk/cdn/static/cms/documents/bus-route-maps/barbican-a4-010522.pdf","borough":"Islington","url_night":null}},
{"type":"Feature","geometry":{"type":"Point","coordinates":[-0.11138685031477652,51.52344060224219]},"properties":{"name":"Clerkenwell","url":"https://tfl.gov.uk/cdn/static/cms/documents/bus-route-maps/clerkenwell-a4-170421.pdf","borough":"Islington","url_night":"https://tfl.gov.uk/cdn/static/cms/documents/bus-route-maps/clerkenwell-night-a4-170421.pdf "}},
{"type":"Feature","geometry":{"type":"Point","coordinates":[-0.11511427525070227,51.5706462727594]},"properties":{"name":"Crouch Hill and Stroud Green","url":"https://tfl.gov.uk/cdn/static/cms/documents/bus-route-maps/crouch-hill-and-stroud-green-a4.pdf","borough":"Islington","url_night":null}},
{"type":"Feature","geometry":{"type":"Point","coordinates":[-0.10626642420242192,51.52114452741582]},"properties":{"name":"Farringdon","url":"https://tfl.gov.uk/cdn/static/cms/documents/bus-route-maps/farringdon-a4-010522.pdf","borough":"Islington","url_night":null}},
{"type":"Feature","geometry":{"type":"Point","coordinates":[-0.10570119115123727,51.56468194884188]},"properties":{"name":"Finsbury Park","url":"https://tfl.gov.uk/cdn/static/cms/documents/bus-route-maps/finsbury-park-a4.pdf","borough":"Islington","url_night":"https://tfl.gov.uk/cdn/static/cms/documents/bus-route-maps/finsbury-park-night-a4-0622.pdf "}},
{"type":"Feature","geometry":{"type":"Point","coordinates":[-0.10280992860174312,51.545794902991624]},"properties":{"name":"Highbury and Islington","url":"https://tfl.gov.uk/cdn/static/cms/documents/bus-route-maps/highbury-and-islngton-a4-040223.pdf","borough":"Islington","url_night":"https://tfl.gov.uk/cdn/static/cms/documents/bus-route-maps/highbury-and-islington-night-a4.pdf "}},
{"type":"Feature","geometry":{"type":"Point","coordinates":[-0.10531704490793518,51.53397554788041]},"properties":{"name":"Islington (Angel)","url":"https://tfl.gov.uk/cdn/static/cms/documents/bus-route-maps/islington-angel-a4-051220.pdf","borough":"Islington","url_night":"https://tfl.gov.uk/cdn/static/cms/documents/bus-route-maps/islington-angel-night-a4-0622.pdf "}},
{"type":"Feature","geometry":{"type":"Point","coordinates":[-0.12238734519660832,51.53074697901022]},"properties":{"name":"King's Cross","url":"https://tfl.gov.uk/cdn/static/cms/documents/bus-route-maps/kings-cross-a4-300121.pdf","borough":"Islington","url_night":"https://tfl.gov.uk/cdn/static/cms/documents/bus-route-maps/kings-cross-night-a4-0622.pdf "}},
{"type":"Feature","geometry":{"type":"Point","coordinates":[-0.08727797912146393,51.52049379038287]},"properties":{"name":"Moorgate","url":"https://tfl.gov.uk/cdn/static/cms/documents/bus-route-maps/moorgate-a4.pdf","borough":"Islington","url_night":null}},
{"type":"Feature","geometry":{"type":"Point","coordinates":[-0.08813334422816892,51.52686145205827]},"properties":{"name":"Old Street and Moorfields Eye Hospital","url":"https://tfl.gov.uk/cdn/static/cms/documents/bus-route-maps/old-street-and-moorfields-eye-hospital-a4-0923.pdf","borough":"Islington","url_night":"https://tfl.gov.uk/cdn/static/cms/documents/bus-route-maps/old-street-and-moorfields-eye-hosp-night-a4.pdf "}}
]}