{"type":"FeatureCollection", "features": [
{"type":"Feature","geometry":{"type":"Point","coordinates":[-0.3012938885762573,51.36344334800721]},"properties":{"name":"Chessington North","url":"https://tfl.gov.uk/cdn/static/cms/documents/bus-route-maps/chessington-north-a4-1018.pdf","borough":"Kingston"}},
{"type":"Feature","geometry":{"type":"Point","coordinates":[-0.3116297389199245,51.35632612184453]},"properties":{"name":"Chessington South and World of  Adventures","url":"https://tfl.gov.uk/cdn/static/cms/documents/bus-route-maps/chessington-south-and-world-of-adventures-a4.pdf","borough":"Kingston"}},
{"type":"Feature","geometry":{"type":"Point","coordinates":[-0.30709969128043896,51.43008465379033]},"properties":{"name":"Ham","url":"https://tfl.gov.uk/cdn/static/cms/documents/bus-route-maps/ham-a4.pdf","borough":"Kingston"}},
{"type":"Feature","geometry":{"type":"Point","coordinates":[-0.3039631712195957,51.37510752765914]},"properties":{"name":"Hook","url":"https://tfl.gov.uk/cdn/static/cms/documents/bus-route-maps/hook-a4.pdf","borough":"Kingston"}},
{"type":"Feature","geometry":{"type":"Point","coordinates":[-0.27412091516911075,51.40621803829661]},"properties":{"name":"Kingsmeadow Stadium (Norbiton)","url":"https://tfl.gov.uk/cdn/static/cms/documents/bus-route-maps/kingsmeadow-stadium-norbiton-a4.pdf","borough":"Kingston"}},
{"type":"Feature","geometry":{"type":"Point","coordinates":[-0.3043903904149328,51.40344441723616]},"properties":{"name":"Kingston University and County Hall","url":"https://tfl.gov.uk/cdn/static/cms/documents/bus-route-maps/kingston-university-and-county-hall-a4.pdf","borough":"Kingston"}},
{"type":"Feature","geometry":{"type":"Point","coordinates":[-0.25571399623854907,51.398643783619626]},"properties":{"name":"New Malden","url":"https://tfl.gov.uk/cdn/static/cms/documents/bus-route-maps/new-malden-a4-190823.pdf","borough":"Kingston"}},
{"type":"Feature","geometry":{"type":"Point","coordinates":[-0.24329645139496386,51.399500656455785]},"properties":{"name":"New Malden (Shannon Corner)","url":"https://tfl.gov.uk/cdn/static/cms/documents/bus-route-maps/new-malden-shannon-corner-a4.pdf","borough":"Kingston"}},
{"type":"Feature","geometry":{"type":"Point","coordinates":[-0.2837345992997506,51.41274901163154]},"properties":{"name":"Norbiton and Kingston Hospital","url":"https://tfl.gov.uk/cdn/static/cms/documents/bus-route-maps/norbiton-and-kingston-hospital-a4-010622.pdf","borough":"Kingston"}},
{"type":"Feature","geometry":{"type":"Point","coordinates":[-0.2900099348845373,51.38123762285183]},"properties":{"name":"West Tolworth","url":"https://tfl.gov.uk/cdn/static/cms/documents/bus-route-maps/west-tolworth-a4.pdf","borough":"Kingston"}},
{"type":"Feature","geometry":{"type":"Point","coordinates":[-0.24512852463261514,51.380743349199435]},"properties":{"name":"Worcester Park","url":"https://tfl.gov.uk/cdn/static/cms/documents/bus-route-maps/worcester-park-a4-020324.pdf","borough":"Kingston"}}
]}