{"type":"FeatureCollection", "features": [
{"type":"Feature","geometry":{"type":"Point","coordinates":[-0.022021851019553045,51.444822111562914]},"properties":{"name":"Catford","url":"https://tfl.gov.uk/cdn/static/cms/documents/bus-route-maps/catford-a4.pdf","borough":"Lewisham","url_night":"https://tfl.gov.uk/cdn/static/cms/documents/bus-route-maps/catford-night-a4-0722.pdf"}},
{"type":"Feature","geometry":{"type":"Point","coordinates":[-0.008870844286435338,51.442109450203304]},"properties":{"name":"Catford East","url":"https://tfl.gov.uk/cdn/static/cms/documents/bus-route-maps/catford-east-a4.pdf","borough":"Lewisham"}},
{"type":"Feature","geometry":{"type":"Point","coordinates":[-0.022789940033045377,51.47630070962132]},"properties":{"name":"Deptford","url":"https://tfl.gov.uk/cdn/static/cms/documents/bus-route-maps/deptford-a4-300923.pdf","borough":"Lewisham"}},
{"type":"Feature","geometry":{"type":"Point","coordinates":[0.021333037866015005,51.43154776907883]},"properties":{"name":"Grove Park","url":"https://tfl.gov.uk/cdn/static/cms/documents/bus-route-maps/grove-park-a4.pdf","borough":"Lewisham"}},
{"type":"Feature","geometry":{"type":"Point","coordinates":[-0.05701297373364735,51.450132749911646]},"properties":{"name":"Honor Oak","url":"https://tfl.gov.uk/cdn/static/cms/documents/bus-route-maps/honor-oak-a4-090119.pdf","borough":"Lewisham"}},
{"type":"Feature","geometry":{"type":"Point","coordinates":[-0.014629956535050082,51.45650218279665]},"properties":{"name":"Ladywell and Lewisham Hospital","url":"https://tfl.gov.uk/cdn/static/cms/documents/bus-route-maps/ladywell-and-lewisham-hospital-a4-0722.pdf","borough":"Lewisham"}},
{"type":"Feature","geometry":{"type":"Point","coordinates":[0.01151578365884295,51.45659319861969]},"properties":{"name":"Lee Green","url":"https://tfl.gov.uk/cdn/static/cms/documents/bus-route-maps/lee-green-a4.pdf","borough":"Lewisham"}},
{"type":"Feature","geometry":{"type":"Point","coordinates":[0.01461013323652928,51.44627934816551]},"properties":{"name":"Lee station","url":"https://tfl.gov.uk/cdn/static/cms/documents/bus-route-maps/lee-station-a4.pdf","borough":"Lewisham"}},
{"type":"Feature","geometry":{"type":"Point","coordinates":[-0.010880770134480515,51.463709023875914]},"properties":{"name":"Lewisham","url":"https://tfl.gov.uk/cdn/static/cms/documents/bus-route-maps/lewisham-a4.pdf","borough":"Lewisham","url_night":"https://tfl.gov.uk/cdn/static/cms/documents/bus-route-maps/lewisham-night-a4-010622.pdf"}},
{"type":"Feature","geometry":{"type":"Point","coordinates":[-0.03258892007739352,51.42803370661532]},"properties":{"name":"Lower Sydenham","url":"https://tfl.gov.uk/cdn/static/cms/documents/bus-route-maps/lower-sydenham-a4.pdf","borough":"Lewisham"}},
{"type":"Feature","geometry":{"type":"Point","coordinates":[-0.032489391611794205,51.475855813838365]},"properties":{"name":"New Cross","url":"https://tfl.gov.uk/cdn/static/cms/documents/bus-route-maps/new-cross-a4-040223.pdf","borough":"Lewisham","url_night":"https://tfl.gov.uk/cdn/static/cms/documents/bus-route-maps/new-cross-night-a4-010622.pdf "}}
]}