{"type":"FeatureCollection", "features": [
{"type":"Feature","geometry":{"type":"Point","coordinates":[-0.07532069608242822,51.51401822418015]},"properties":{"name":"Aldgate and Fenchurch Street","url":"https://tfl.gov.uk/cdn/static/cms/documents/bus-route-maps/aldgate-and-fenchurch-street-a4.pdf","borough":"Tower Hamlets","url_night":"https://tfl.gov.uk/cdn/static/cms/documents/bus-route-maps/aldgate-and-fenchurch-street-night-a4-310723.pdf"}},
{"type":"Feature","geometry":{"type":"Point","coordinates":[-0.07066937768929753,51.51563704364963]},"properties":{"name":"Aldgate East","url":"https://tfl.gov.uk/cdn/static/cms/documents/bus-route-maps/aldgate-east-a4-0622.pdf","borough":"Tower Hamlets","url_night":"https://tfl.gov.uk/cdn/static/cms/documents/bus-route-maps/aldgate-east-night-a4-0622.pdf "}},
{"type":"Feature","geometry":{"type":"Point","coordinates":[-0.055508144087681205,51.52740324574908]},"properties":{"name":"Bethnal Green","url":"https://tfl.gov.uk/cdn/static/cms/documents/bus-route-maps/bethnal-green-a4-310723.pdf","borough":"Tower Hamlets"}},
{"type":"Feature","geometry":{"type":"Point","coordinates":[-0.020974262392258226,51.505100153255]},"properties":{"name":"Canary Wharf","url":"https://tfl.gov.uk/cdn/static/cms/documents/bus-route-maps/canary-wharf-a4.pdf","borough":"Tower Hamlets"}},
{"type":"Feature","geometry":{"type":"Point","coordinates":[-0.03394769605803261,51.525252340211566]},"properties":{"name":"Mile End","url":"https://tfl.gov.uk/cdn/static/cms/documents/bus-route-maps/mile-end-a4-181123.pdf","borough":"Tower Hamlets"}},
{"type":"Feature","geometry":{"type":"Point","coordinates":[-0.030473177111708147,51.51859290200839]},"properties":{"name":"Mile End Park Stadium","url":"https://tfl.gov.uk/cdn/static/cms/documents/bus-route-maps/mile-end-park-stadium-a4.pdf","borough":"Tower Hamlets"}},
{"type":"Feature","geometry":{"type":"Point","coordinates":[-0.0458873558443607,51.52190556270244]},"properties":{"name":"Stepney Green","url":"https://tfl.gov.uk/cdn/static/cms/documents/bus-route-maps/stepney-green-a4.pdf","borough":"Tower Hamlets"}},
{"type":"Feature","geometry":{"type":"Point","coordinates":[-0.07453636658008948,51.509922329822416]},"properties":{"name":"Tower of London","url":"https://tfl.gov.uk/cdn/static/cms/documents/bus-route-maps/tower-of-london-a4.pdf","borough":"Tower Hamlets"}},
{"type":"Feature","geometry":{"type":"Point","coordinates":[-0.05949988235685949,51.51919710071029]},"properties":{"name":"Whitechapel and the Royal London Hospital","url":"https://tfl.gov.uk/cdn/static/cms/documents/bus-route-maps/whitechapel-a4-010522.pdf","borough":"Tower Hamlets"}}
]}