{"type":"FeatureCollection", "features": [
{"type":"Feature","geometry":{"type":"Point","coordinates":[-0.15137063632161507,51.44305052981933]},"properties":{"name":"Balham","url":"https://tfl.gov.uk/cdn/static/cms/documents/bus-route-maps/balham-a4.pdf","borough":"Wandsworth"}},
{"type":"Feature","geometry":{"type":"Point","coordinates":[-0.17846987718330976,51.4668100606653]},"properties":{"name":"Battersea (York Road and Heliport)","url":"https://tfl.gov.uk/cdn/static/cms/documents/bus-route-maps/battersea-york-road-and-heliport-a4.pdf","borough":"Wandsworth"}},
{"type":"Feature","geometry":{"type":"Point","coordinates":[-0.14852181301298262,51.47790981923074]},"properties":{"name":"Battersea Park","url":"https://tfl.gov.uk/cdn/static/cms/documents/bus-route-maps/battersea-park-a4.pdf","borough":"Wandsworth"}},
{"type":"Feature","geometry":{"type":"Point","coordinates":[-0.1497976713948615,51.48440499991789]},"properties":{"name":"Chelsea Bridge and The Lister Hospital","url":"https://tfl.gov.uk/cdn/static/cms/documents/bus-route-maps/chelsea-bridge-and-lister-hospital-a4.pdf","borough":"Wandsworth"}},
{"type":"Feature","geometry":{"type":"Point","coordinates":[-0.20532136920280986,51.45634112709489]},"properties":{"name":"East Putney and West Hill","url":"https://tfl.gov.uk/cdn/static/cms/documents/bus-route-maps/east-putney-and-west-hill-a4.pdf","borough":"Wandsworth"}},
{"type":"Feature","geometry":{"type":"Point","coordinates":[-0.13528558184659048,51.477777003975696]},"properties":{"name":"Nine Elms and New Covent Garden Market","url":"https://tfl.gov.uk/cdn/static/cms/documents/bus-route-maps/nine-elms-and-new-covent-garden-market-a4.pdf","borough":"Wandsworth"}},
{"type":"Feature","geometry":{"type":"Point","coordinates":[-0.24094868881938014,51.44989659438336]},"properties":{"name":"Roehampton and Queen Mary's Hospital","url":"https://tfl.gov.uk/cdn/static/cms/documents/bus-route-maps/roehampton-and-queen-marys-hospital-a4.pdf","borough":"Wandsworth"}},
{"type":"Feature","geometry":{"type":"Point","coordinates":[-0.1758022,51.4264772]},"properties":{"name":"St George's Hospital (Tooting)","url":"https://tfl.gov.uk/cdn/static/cms/documents/bus-route-maps/st-georges-hospital-tooting-a4.pdf","borough":"Wandsworth"}},
{"type":"Feature","geometry":{"type":"Point","coordinates":[-0.18511708046325792,51.43369258418027]},"properties":{"name":"Summerstown and Wimbledon Stadium","url":"https://tfl.gov.uk/cdn/static/cms/documents/bus-route-maps/summerstown-and-wimbledon-stadium-a4.pdf","borough":"Wandsworth"}}
]}
